nodeID,nodeLabel,latitude,longitude
1,"DEU:Kaiserslautern, Kreisfreie Stadt",49.42787421250006,7.758785585880146
2,"DEU:Oldenburg (Oldenburg), Kreisfreie Stadt",53.14282016850007,8.22292930708323
3,DEU:Grafschaft Bentheim,52.44690679400006,7.108295808765211
4,"DEU:Zweibrücken, Kreisfreie Stadt",49.25226326500004,7.368667200643337
5,DEU:Elbe-Elster,51.624569207000064,13.481259494141211
6,FRA:Haute-Vienne,45.919612613000055,1.203119567299219
7,FRA:Corrèze,45.34426008700004,1.8180687764984995
8,ITA:Siracusa,37.02849247700004,15.086654412949104
9,ITA:Asti,44.82591546550006,8.203694829525146
10,DEU:Aurich,53.51151500050005,7.355449326139057
11,"DEU:Salzgitter, Kreisfreie Stadt",52.11733575850005,10.340280632969847
12,"DEU:Kiel, Kreisfreie Stadt",54.34248922550006,10.127524793841648
13,DEU:Roth,49.19374295000006,11.056716443321733
14,DEU:Rottal-Inn,48.41226817650005,12.84666300820353
15,DEU:Lichtenfels,50.10383996400006,11.093863663098531
16,"DEU:Passau, Kreisfreie Stadt",48.57714852200007,13.430189022196124
17,DEU:Verden,52.97628754750005,9.180986056563398
18,DEU:Saale-Orla-Kreis,50.58839728700005,11.781507672654062
19,"DEU:Koblenz, Kreisfreie Stadt",50.34886550500005,7.583702905683679
20,TUR:Şırnak,37.43862617900004,42.588954437918375
21,TUR:Karabük,41.20749014250006,32.52441273152626
22,TUR:Kilis,36.84407692600004,37.01279777813086
23,TUR:Artvin,41.03585718250005,41.84689469513883
24,DEU:Jerichower Land,52.29138895400007,12.011866064389135
25,DEU:Bernkastel-Wittlich,49.901178145000046,6.965080367565313
26,DEU:Görlitz,51.208399445000055,14.84783203566873
27,DEU:Schwandorf,49.36995797100005,12.27536418367977
28,SRB:Jablanička oblast,42.91847096600003,21.92059134066529
29,SRB:Šumadijska oblast,44.11870358200005,20.85261318447425
30,SRB:Zaječarska oblast,43.75616061650004,22.03800562944905
31,"DEU:Neustadt an der Weinstraße, Kreisfreie Stadt",49.34974523850005,8.115547621534347
32,DEU:Borken,51.987245175000055,6.944918155053643
33,DEU:Oberallgäu,47.56653713800006,10.222075646127106
34,"DEU:Schwabach, Kreisfreie Stadt",49.33517540700004,11.029797618955254
35,DEU:Birkenfeld,49.72801389050005,7.290047287847344
36,"DEU:Solingen, Kreisfreie Stadt",51.16921831550008,7.058118288691704
37,"DEU:Würzburg, Kreisfreie Stadt",49.77750209700005,9.936335676177247
38,DEU:Landsberg am Lech,48.04218971600005,10.944174617350654
39,DEU:Altenburger Land,50.95687034800005,12.433098197125474
40,DEU:Sömmerda,51.16561597750007,11.193772887842195
41,"DEU:Speyer, Kreisfreie Stadt",49.33023103650007,8.42844459254423
42,DEU:Hochtaunuskreis,50.28521557400006,8.504051408925793
43,DEU:Göttingen,51.56500062400005,10.023225505631435
44,DEU:Schleswig-Flensburg,54.57411469400006,9.518587865970847
45,"DEU:Aschaffenburg, Landkreis",49.99068412450006,9.299429355011888
46,"DEU:Amberg, Kreisfreie Stadt",49.45392353850005,11.84721344173972
47,DEU:Regionalverband Saarbrücken,49.24520152550005,6.970430072773276
48,"DEU:Osnabrück, Landkreis",52.37347789750004,8.160309966973362
49,DEU:Heidenheim,48.64902149800005,10.096093557453036
50,POL:Świecki,53.51643777800004,18.07780632532388
51,POL:Koszaliński,54.19483920800005,16.18455690945942
52,DEU:Donau-Ries,48.81012552750005,10.69762969422067
53,DEU:Emmendingen,48.13318649750005,7.861461972725719
54,DEU:Kronach,50.34154275800006,11.406064053957984
55,DEU:Bodenseekreis,47.71462130400005,9.39613436617337
56,POL:Olsztyński,53.80865616950004,20.91823726120156
57,POL:Krakowski,50.06938236850005,20.40486945375536
58,ITA:Pordenone,46.09695900950007,12.69902587610526
59,ITA:Rovigo,44.97598169400007,11.593357065333215
60,DEU:Vulkaneifel,50.23180901850006,6.76834830158176
61,DEU:Uckermark,53.24477940150007,13.841231780446604
62,PRT:Região Autónoma dos Açores,37.80728237450006,-25.47239261104972
63,PRT:Beiras e Serra da Estrela,40.50723466800005,-7.29510055215121
64,TUR:Malatya,38.514507024500034,37.842148942070686
65,TUR:Nevşehir,38.83542368000005,34.601650160354325
66,DEU:Reutlingen,48.40050370900005,9.377699644224432
67,DEU:Schwarzwald-Baar-Kreis,47.97696231400005,8.487678201253011
68,FRA:Lozère,44.54355139350005,3.5212768578088287
69,FRA:Aube,48.32020918800004,4.190484835219921
70,FRA:Ain,46.06440930700006,5.284430237811634
71,FRA:Puy-de-Dôme,45.77213948000008,3.0836526475269355
72,NLD:Groot-Amsterdam,52.41135207150006,4.903020924915859
73,NLD:Kop van Noord-Holland,52.78038034800005,5.010189178734295
74,DEU:Stade,53.59914586900004,9.35973256673287
75,ITA:Macerata,43.15261308800004,13.149143561565126
76,ITA:Lodi,45.26132180300005,9.493565728478911
77,DEU:Mettmann,51.21984364850008,6.956555254221582
78,"DEU:München, Landkreis",48.10678092000006,11.432946862791676
79,"DEU:Kassel, Kreisfreie Stadt",51.30824104300004,9.45413390256006
80,DEU:Hochsauerlandkreis,51.31871378550005,8.265081430598816
81,DEU:Rhein-Kreis Neuss,51.17456802950005,6.659733539211988
82,"DEU:Kaufbeuren, Kreisfreie Stadt",47.88084427200005,10.60559619379758
83,DEU:Peine,52.312044934000056,10.250372693275066
84,DEU:Rastatt,48.78390955300006,8.097387695284143
85,FRA:Guadeloupe,16.154037665500056,-61.67682660444341
86,DEU:Donnersbergkreis,49.62740258400007,7.936604119563693
87,DEU:Trier-Saarburg,49.71660701650004,6.837482804256656
88,DEU:Neu-Ulm,48.29094836750005,10.171579503499586
89,DEU:Unstrut-Hainich-Kreis,51.17991528550005,10.569807844065224
90,DEU:Bergstraße,49.62266262700004,8.525438418543413
91,DEU:Mayen-Koblenz,50.31636914050006,7.257618903978337
92,DEU:Höxter,51.678296606500055,9.184304458097674
93,DEU:St. Wendel,49.52743173850007,7.129310269652084
94,DEU:Mansfeld-Südharz,51.53452342900008,11.334968756583384
95,"DEU:Bamberg, Kreisfreie Stadt",49.88781581050006,10.89256729534635
96,DEU:Südwestpfalz,49.20407495950005,7.787806731801041
97,"DEU:Duisburg, Kreisfreie Stadt",51.44901685800005,6.742649204379712
98,DEU:Plön,54.24532841650003,10.414114809745945
99,"DEU:Wuppertal, Kreisfreie Stadt",51.24096228150003,7.165015944642809
100,"DEU:Köln, Kreisfreie Stadt",50.95543557400006,6.955975965615698
101,ROU:Vâlcea,45.04153772000004,24.15419014488961
102,ROU:Giurgiu,44.11996355450006,26.042949360179065
103,"DEU:Bayreuth, Kreisfreie Stadt",49.93264253150005,11.5858930014211
104,DEU:Heidekreis,52.908893094000064,9.77933011911123
105,DEU:Rendsburg-Eckernförde,54.32795075350006,9.722226898974236
106,"DEU:Kassel, Landkreis",51.41372371250006,9.39073063661191
107,"DEU:Krefeld, Kreisfreie Stadt",51.34586728500005,6.581371158227233
108,DEU:Rhein-Sieg-Kreis,50.75379160250006,7.37944588584638
109,"DEU:Landau in der Pfalz, Kreisfreie Stadt",49.194574745500034,8.094418495972915
110,DEU:Aichach-Friedberg,48.40812912000004,11.061175604316308
111,DEU:Zwickau,50.73480608850005,12.465723311782956
112,DEU:Hildburghausen,50.41135225550005,10.707601645002647
113,DEU:Nordwestmecklenburg,53.80515014950007,11.284831859700365
114,FRA:Hautes-Alpes ,44.65682062100007,6.3507810339176345
115,FRA:Landes,44.01004240700004,-0.6433824547395175
116,DEU:Tirschenreuth,49.90956811700005,12.193230720223548
117,DEU:Ostallgäu,47.81194347750005,10.558082921492606
118,"DEU:Ansbach, Landkreis",49.236310473500055,10.375274130993894
119,"DEU:Regensburg, Landkreis",48.99306214550006,12.336148820745615
120,"DEU:Karlsruhe, Stadtkreis",49.01597501550006,8.409515999377476
121,"DEU:Gießen, Landkreis",50.55947629500005,8.869611204832509
122,DEU:Lahn-Dill-Kreis,50.639001426500045,8.327175425780371
123,DEU:Ortenaukreis,48.43830842600008,8.009938714079556
124,"DEU:Landshut, Landkreis",48.54478344900005,12.308287713328763
125,DEU:Northeim,51.76540093550005,9.85666977898127
126,DEU:Saalfeld-Rudolstadt,50.62953254450005,11.287935008718431
127,DEU:Vogtlandkreis,50.42438257500007,12.25187491135331
128,"DEU:Baden-Baden, Stadtkreis",48.759172707500056,8.242815279040585
129,DEU:Göppingen,48.650205629000055,9.739438922720534
130,"DEU:Braunschweig, Kreisfreie Stadt",52.27361781800005,10.520359189330687
131,"DEU:Dessau-Roßlau, Kreisfreie Stadt",51.85572233600004,12.217824742057903
132,DEU:Rhein-Hunsrück-Kreis,50.05447880400007,7.511137828059839
133,DEU:Sächsische Schweiz-Osterzgebirge,50.90492454100004,13.9239934276397
134,DEU:Wesel,51.602524993500055,6.6035142579634245
135,DEU:Goslar,51.84732570400004,10.347353588127197
136,DEU:Werra-Meißner-Kreis,51.20826514850006,9.892698715015186
137,DEU:Tuttlingen,48.01547644850007,8.82149771613241
138,DEU:Eifelkreis Bitburg-Prüm,50.06696519050004,6.408795081079981
139,ITA:Ferrara,44.76532631850003,11.83161280077849
140,DEU:Euskirchen,50.555626227500056,6.644651571860468
141,"DEU:Oberhausen, Kreisfreie Stadt",51.511783147000045,6.853221303849631
142,"DEU:Nürnberg, Kreisfreie Stadt",49.43781616050006,11.064861810985631
143,"DEU:Wilhelmshaven, Kreisfreie Stadt",53.56885465450006,8.094568999332536
144,"DEU:Bottrop, Kreisfreie Stadt",51.57213106550006,6.888138207673049
145,DEU:Dachau,48.33064653150004,11.369794867405831
146,"DEU:Lüneburg, Landkreis",53.214277311000046,10.54512122711795
147,DEU:Helmstedt,52.26105020300005,10.891916692509923
148,DEU:Prignitz,53.12338647750005,11.900289473452876
149,DEU:Wartburgkreis,50.88935268750007,10.241591365695683
150,DEU:Saale-Holzland-Kreis,50.91762444700007,11.808162946080191
151,DEU:Schwäbisch Hall,49.15656409800008,9.935712995548492
152,ROU:Vrancea,45.788425947000064,26.881292822918866
153,ROU:Tulcea,45.04065358650004,28.897079713151893
154,DEU:Ludwigsburg,48.90978983950004,9.14090534632817
155,FRA:Seine-Maritime,49.66251111550005,0.9396547603528372
156,FRA:Val-d’Oise,49.07508224150004,2.2086726458607258
157,FRA:Sarthe,48.027206803500064,0.25360694842725
158,ITA:Parma,44.69294791000007,10.097765944257423
159,ITA:Mantova,45.17278792950003,10.668334458061445
160,DEU:Mittelsachsen,50.93743835550004,13.041376425821198
161,DEU:Nürnberger Land,49.49317208300005,11.371500250411849
162,"DEU:Schweinfurt, Kreisfreie Stadt",50.05229841300008,10.221756545001998
163,DEU:Straubing-Bogen,48.917486535500046,12.71864582323661
164,DEU:Viersen,51.29769870150005,6.318652639631823
165,DEU:Nienburg (Weser),52.64865317500005,9.257019719953476
166,DEU:Friesland (DE),53.51072927200005,7.993601106975907
167,DEU:Stendal,52.68640495850008,11.852944186639428
168,DEU:Freyung-Grafenau,48.833398122000034,13.485645485994842
169,DEU:Bad Kreuznach,49.81923579200006,7.671597695059921
170,DEU:Hamburg,53.57149618650004,9.943244761888645
171,DEU:Oberspreewald-Lausitz,51.63204233350007,14.033855961404909
172,DEU:Kulmbach,50.10039559950005,11.490925269032491
173,DEU:Warendorf,51.88048319950005,7.939639477247351
174,FRA:Ariège,42.94438543550004,1.4069567138896055
175,FRA:Marne,48.96287604550005,4.314961368521473
176,"DEU:Worms, Kreisfreie Stadt",49.65905049950007,8.321961540405749
177,DEU:Weilheim-Schongau,47.78505851950004,11.085845384883797
178,"DEU:Pforzheim, Stadtkreis",48.87646594950005,8.720267074861638
179,DEU:Lindau (Bodensee),47.604576177500064,9.907573564108215
180,DEU:Alb-Donau-Kreis,48.38614690950007,9.72960862717116
181,DEU:Erlangen-Höchstadt,49.63078409750005,10.850878697123102
182,DEU:Lörrach,47.70656705000005,7.749811994093752
183,DEU:Saarlouis,49.36122625650003,6.754217565765609
184,"DEU:Weimar, Kreisfreie Stadt",50.97574581450005,11.329069865198104
185,DEU:Wolfenbüttel,52.13447669800004,10.65406572076402
186,DEU:Günzburg,48.34447317750005,10.38772563372354
187,"DEU:Ludwigshafen am Rhein, Kreisfreie Stadt",49.48769106900005,8.387121433355961
188,ITA:Agrigento,37.41354091400007,13.557296961577574
189,ITA:Cosenza,39.59852773600005,16.330386206858883
190,POL:Włocławski,52.66761887000007,18.94233846648475
191,POL:Tyski,50.06307947650004,18.95938335521777
192,DEU:Amberg-Sulzbach,49.48961620000006,11.718421331238424
193,DEU:Herzogtum Lauenburg,53.59328775950004,10.664318793128842
194,DEU:Soest,51.560637264000064,8.155757664037917
195,DEU:Rhön-Grabfeld,50.38143842450003,10.20590392322013
196,"DEU:Osnabrück, Kreisfreie Stadt",52.28068432500004,8.059582777635708
197,"DEU:Coburg, Landkreis",50.24238371750008,11.09410316877656
198,TUR:Düzce,40.86866920450007,31.211769829909706
199,"DEU:Gelsenkirchen, Kreisfreie Stadt",51.55684883850006,7.081620067306587
200,DEU:Spree-Neiße,51.78160488350008,14.19670373920193
201,DEU:Herford,52.163439243000056,8.632614563562724
202,"DEU:Erfurt, Kreisfreie Stadt",50.98545932350007,11.026754504012988
203,DEU:Groß-Gerau,49.90021260100005,8.452894247725471
204,"DEU:Frankfurt (Oder), Kreisfreie Stadt",52.32363698000006,14.493390983997267
205,ITA:Sud Sardegna,39.39079782750005,8.827991132238967
206,ITA:Foggia,41.50143081250005,15.453581220170266
207,DEU:Paderborn,51.66490968600005,8.768848401825966
208,DEU:Calw,48.66065047700005,8.62638130270701
209,FRA:Haute-Marne,48.13120365450007,5.250453210307761
210,FRA:Eure,49.07492452750006,0.9644681500595088
211,DEU:Neuwied,50.565234964500064,7.401284003751479
212,DEU:Nordfriesland,54.58553500550005,9.06901025570492
213,SWE:Gävleborgs län,61.27172005400004,16.359650990594147
214,SWE:Stockholms län,59.47593130900006,17.94988773324362
215,DEU:Cochem-Zell,50.12258810350008,7.139720349730515
216,DEU:Unna,51.56224212750007,7.720539944258298
217,TUR:Iğdır,39.884664311500046,43.97333805714647
218,"DEU:Schwerin, Kreisfreie Stadt",53.61609601650005,11.43089903441994
219,ITA:Bologna,44.433228195000055,11.391715040692606
220,ITA:Genova,44.44672064550005,9.05923181202211
221,ITA:Avellino,40.99443066000006,15.13898319140961
222,TUR:Kırklareli,41.66547785600005,27.524830542381807
223,TUR:Isparta,37.90945872150007,30.799808327382397
224,POL:Łomżyński,52.91233805300007,22.352880204545787
225,POL:Gdański,54.469304589000046,18.13742651861434
226,DEU:Holzminden,51.843544777000034,9.562811880741531
227,DEU:Neumarkt i. d. OPf.,49.19204231100005,11.603307417358716
228,DEU:Coesfeld,51.86216026000005,7.320783140344231
229,"DEU:Landshut, Kreisfreie Stadt",48.55389615850007,12.20463822860356
230,DEU:Main-Spessart,49.99552014750006,9.708673001992665
231,DEU:Ebersberg,48.07564153000004,11.92982521184294
232,DEU:Märkisch-Oderland,52.64233173200006,14.17642814283096
233,DEU:Böblingen,48.68285563050006,8.963238585872752
234,DEU:Weißenburg-Gunzenhausen,49.03055234000004,10.929189538101465
235,TUR:Mardin,37.32776346050005,40.77412511118772
236,TUR:Çorum,40.64614063700003,34.715993202585395
237,CHE:Aargau,47.377993927000034,8.212991556109365
238,CHE:Valais / Wallis,46.25618418400006,7.624394043001108
239,CHE:Appenzell Ausserrhoden,47.35822323500005,9.277588717816975
240,CHE:Basel-Stadt,47.55920480700004,7.592444389607431
241,ITA:Oristano,40.02665445200003,8.679281747749593
242,ITA:Vibo Valentia,38.62730301850007,16.098137257646904
243,DEU:Olpe,51.08635047550004,8.02332368641078
244,"DEU:Schweinfurt, Landkreis",50.02626243800006,10.104883566014768
245,POL:Suwalski,53.81473003900007,23.13603922988012
246,POL:Krośnieński,49.43740812450005,22.17586987294686
247,"DEU:Coburg, Kreisfreie Stadt",50.26248920200004,10.985061699499036
248,DEU:Lüchow-Dannenberg,53.04814974600004,11.177213399522138
249,DEU:Teltow-Fläming,52.100704519500056,13.265757662262027
250,ITA:Arezzo,43.51942506200004,11.763018441787152
251,ITA:Belluno,46.28089724150007,12.079381613003804
252,TUR:Bayburt,40.24756888400003,40.22000624688981
253,"DEU:Düsseldorf, Kreisfreie Stadt",51.23778004750005,6.787172862735042
254,DEU:Unterallgäu,48.02534884050005,10.4558403522603
255,DEU:Berlin,52.50609402200004,13.394781054503756
256,FRA:Dordogne,45.14400486200003,0.6306937136230099
257,FRA:Pas-de-Calais,50.51600332550004,2.2571889840245096
258,DEU:Gütersloh,51.92565810450006,8.334912407049554
259,"DEU:Mönchengladbach, Kreisfreie Stadt",51.16585610650006,6.413307834972815
260,DEU:Miltenberg,49.75561822650005,9.221016205576625
261,"DEU:Neumünster, Kreisfreie Stadt",54.08305201950006,9.97657476741377
262,DEU:Steinfurt,52.234500597500045,7.512450820439776
263,"DEU:Suhl, Kreisfreie Stadt",50.62333980500006,10.715468035133432
264,"DEU:Freiburg im Breisgau, Stadtkreis",47.98654708700005,7.804515064243791
265,FRA:Cantal,45.052093672500064,2.6997152785181457
266,FRA:Meurthe-et-Moselle ,48.95871230750007,5.98486912151307
267,DEU:Erding,48.29835693550004,12.009531724608662
268,DEU:Rhein-Neckar-Kreis,49.39915068550008,8.562617220902293
269,ITA:Caserta,41.20298138400005,14.116420644878833
270,ITA:Cremona,45.22121128150008,10.03571359003958
271,DEU:Cloppenburg,52.930666640000055,7.964761827510518
272,DEU:Konstanz,47.79601526700006,8.852053585095652
273,DEU:Rhein-Lahn-Kreis,50.241891200000055,7.815037184455656
274,"DEU:Regensburg, Kreisfreie Stadt",49.02194780400004,12.100918549931723
275,TUR:Niğde,37.85409220200006,34.733135452319615
276,TUR:Ankara,39.70957338450006,32.50037186896454
277,DEU:Schaumburg,52.27672812800006,9.203929683474565
278,"DEU:Wiesbaden, Kreisfreie Stadt",50.07219806450004,8.25316209330363
279,DEU:Germersheim,49.132316762000045,8.314617763359147
280,BGR:Burgas,42.44465095500007,27.22122328888769
281,BGR:Varna,43.21490951800007,27.61869047506157
282,"DEU:Halle (Saale), Kreisfreie Stadt",51.47347084650005,11.967312382721534
283,ROU:Dolj,44.21589630050005,23.66837255746889
284,ROU:Mureş,46.607174423500055,24.62482233556608
285,"DEU:Delmenhorst, Kreisfreie Stadt",53.04842302950007,8.64734969423316
286,"DEU:Passau, Landkreis",48.52728507350005,13.270712746904938
287,DEU:Pfaffenhofen a. d. Ilm,48.60853739550007,11.523775997866611
288,DEU:Burgenlandkreis,51.12669780350007,11.849435300449857
289,DEU:Freudenstadt,48.47258669800004,8.541002514966383
290,"DEU:Ingolstadt, Kreisfreie Stadt",48.75397700650004,11.395295429419727
291,"DEU:Rostock, Kreisfreie Stadt",54.148119348500046,12.143565909028556
292,FRA:La Réunion,-21.13145145799993,55.53619711217674
293,FRA:Haute-Loire,45.08514605100004,3.833450695959717
294,"DEU:Leipzig, Kreisfreie Stadt",51.34265206950005,12.389028113533666
295,"DEU:Wolfsburg, Kreisfreie Stadt",52.40684793550005,10.778977350323643
296,"DEU:Bayreuth, Landkreis",49.87331139750006,11.548736191328508
297,DEU:Schwalm-Eder-Kreis,51.01727655100007,9.329797747484418
298,"DEU:Heilbronn, Stadtkreis",49.15173894100008,9.203250809412197
299,DEU:Steinburg,53.90632806200006,9.482935249432902
300,DEU:Schmalkalden-Meiningen,50.62211006700005,10.340882976607611
301,ITA:Roma,41.85298556850006,12.631292787410423
302,ROU:Botoşani,47.848884846500056,26.758226516698684
303,ROU:Harghita,46.64248455300003,25.62063802434374
304,"DEU:Heidelberg, Stadtkreis",49.40756652700003,8.712674548751904
305,DEU:Wittenberg,51.83288363550005,12.728378290174067
306,"DEU:Würzburg, Landkreis",49.71693883250006,9.8762543776518
307,"DEU:Remscheid, Kreisfreie Stadt",51.18311174350004,7.226932171706994
308,DEU:Wunsiedel i. Fichtelgebirge,50.10001041400005,12.014299125415317
309,ITA:Ascoli Piceno,42.88317275450004,13.541145805833978
310,ITA:Sassari,40.77350877650005,8.923988981727476
311,"DEU:Hamm, Kreisfreie Stadt",51.66050731050004,7.814901868325747
312,"DEU:Bonn, Kreisfreie Stadt",50.70383715300005,7.098298453270619
313,"DEU:Frankenthal (Pfalz), Kreisfreie Stadt",49.53364415950006,8.347581794881911
314,ITA:Novara,45.58380834050004,8.545387721853285
315,DEU:Düren,50.822293374000026,6.525787698544402
316,DEU:Leer,53.20474637300004,7.4593970917625905
317,"DEU:Mainz, Kreisfreie Stadt",49.96506427400007,8.256588186148061
318,DEU:Diepholz,52.74719330000005,8.762742924138387
319,DEU:Rheinisch-Bergischer Kreis,51.01396926100006,7.171793047090024
320,DEU:Zollernalbkreis,48.25995086350008,8.911341803098544
321,"DEU:Bielefeld, Kreisfreie Stadt",52.01584752950004,8.558041383066577
322,DEU:Havelland,52.62491234500007,12.685290526759095
323,FRA:Nièvre,47.120162373000056,3.545223150395689
324,DEU:Rhein-Erft-Kreis,50.89207642600008,6.735011941444774
325,"DEU:Oldenburg, Landkreis",52.98412233600004,8.382081268231332
326,FRA:Meuse ,49.01274347300006,5.428955846830375
327,FRA:Territoire de Belfort,47.62944192100005,6.900742089643888
328,TUR:Şanlıurfa,37.34491350650006,38.92375117229426
329,TUR:Kocaeli,40.86927053100004,29.82086227056387
330,"DEU:Bremerhaven, Kreisfreie Stadt",53.53933972650006,8.608245435249028
331,"DEU:Ulm, Stadtkreis",48.391106361000055,9.931451259142936
332,"DEU:Karlsruhe, Landkreis",49.05409699050006,8.66442791715345
333,"DEU:Hof, Landkreis",50.26460836700005,11.865428413563478
334,DEU:Kleve,51.62920493750005,6.201114065686036
335,"DEU:Erlangen, Kreisfreie Stadt",49.588782449000064,10.981763116533957
336,"DEU:Fürth, Landkreis",49.453705586500064,10.831700712716788
337,"DEU:Flensburg, Kreisfreie Stadt",54.78523744100005,9.438352165733969
338,DEU:Weimarer Land,50.95497568800005,11.205407805845343
339,DEU:Minden-Lübbecke,52.34685142300006,8.754477960720527
340,CHE:Glarus,46.98560137950005,9.09233063725114
341,TUR:Mersin,36.720405537500014,33.73469142524033
342,TUR:Denizli,37.67831634000004,29.243289685156423
343,"DEU:Emden, Kreisfreie Stadt",53.36482499400003,7.195260437183812
344,DEU:Neckar-Odenwald-Kreis,49.46747452350007,9.271383667714687
345,ESP:Jaén,37.95618422350003,-3.493297130930164
346,ESP:Ávila,40.62552329400006,-4.835890534161348
347,ESP:Toledo,39.78830737850007,-4.102631052231721
348,NOR:Akershus,60.03766222100003,11.318929557158755
349,NOR:Troms/Romsa/Tromssa,69.29028284700007,20.58212926131984
350,SRB:Borska oblast,44.30446993800004,22.23768519657179
351,SRB:Moravička oblast,43.77299323650007,20.328929936364915
352,DEU:Region Hannover,52.40204274250004,9.800088665526363
353,DEU:Osterholz,53.26478622350004,8.742081933568798
354,ROU:Sibiu,45.88983914200003,24.23561561829515
355,DEU:Harz,51.81263232600003,10.913247092627394
356,DEU:Main-Kinzig-Kreis,50.26608708700007,9.4065269280408
357,DEU:Rotenburg (Wümme),53.25586281300005,9.308451882340238
358,DEU:Dahme-Spreewald,52.07371949200004,13.867139979934024
359,FRA:Guyane,3.9305679855000335,-53.03359181931886
360,FRA:Savoie,45.49588917100005,6.381735298728668
361,"DEU:Straubing, Kreisfreie Stadt",48.883591341000056,12.595405874930492
362,DEU:Oberbergischer Kreis,51.03798527500007,7.524605310963455
363,DEU:Märkischer Kreis,51.27348993250007,7.728823971602624
364,DEU:Neustadt a. d. Waldnaab,49.68098645300006,11.863753484620776
365,DEU:Mühldorf a. Inn,48.25735368700006,12.398143557436288
366,"DEU:Stuttgart, Stadtkreis",48.77707701650005,9.199793674759286
367,DEU:Neuburg-Schrobenhausen,48.64432753500006,11.234071677113889
368,POL:Puławski,51.31994283350005,22.05381654051567
369,"DEU:Jena, Kreisfreie Stadt",50.927348687000034,11.586897385596602
370,DEU:Esslingen,48.650384075000034,9.356443395589904
371,DEU:Regen,49.01579480150005,13.115490406863948
372,DEU:Dithmarschen,54.13294242050006,9.122559283206598
373,"DEU:München, Kreisfreie Stadt",48.15289090600007,11.527895691446409
374,DEU:Barnim,52.802489153500034,13.677792147898272
375,"DEU:Mülheim an der Ruhr, Kreisfreie Stadt",51.41285069150004,6.880858092968271
376,DEU:Merzig-Wadern,49.492009406500046,6.630781925622217
377,DEU:Mecklenburgische Seenplatte,53.58486727250005,13.061388984254004
378,DEU:Main-Taunus-Kreis,50.099793969000046,8.427024608300673
379,SRB:Braničevska oblast,44.45408255450005,21.54842149321736
380,SRB:Kolubarska oblast,44.32754946000006,19.85715856101443
381,"DEU:Mannheim, Stadtkreis",49.49896716650005,8.509696670049042
382,ESP:A Coruña,43.15384420700005,-8.579850103766056
383,DEU:Miesbach,47.757440374000055,11.823810098540108
384,ROU:Olt,44.29313145400005,24.46627295450947
385,ROU:Mehedinţi,44.60370086750007,23.05633973136934
386,DEU:Breisgau-Hochschwarzwald,47.92996921950007,8.133869275952648
387,ITA:Verona,45.443323434000064,10.975628651806044
388,ITA:Matera,40.44561746300005,16.472372840844873
389,ESP:Cáceres,39.75894009750005,-6.137295340568468
390,DEU:Ahrweiler,50.478290596500045,7.12127375845578
391,DEU:Limburg-Weilburg,50.43182631150006,8.211853065478964
392,"DEU:Aschaffenburg, Kreisfreie Stadt",49.97108532400006,9.13805231184614
393,"DEU:Gera, Kreisfreie Stadt",50.88798931450003,12.080704449598482
394,DEU:Vechta,52.66023922100004,8.173374643810837
395,DEU:Emsland,52.697561270500046,7.36771859306302
396,DEU:Altötting,48.199546860000055,12.72338309441151
397,DEU:Berchtesgadener Land,47.71403693350007,12.817739512150986
398,DEU:Rems-Murr-Kreis,48.90989653750003,9.545843798805784
399,DEU:Wittmund,53.53652863050005,7.745005188860438
400,PRT:Grande Lisboa,38.86999667000004,-9.243267508995224
401,PRT:Região de Aveiro,40.68725249650004,-8.485431364808363
402,DEU:Ennepe-Ruhr-Kreis,51.349309815000055,7.265610885846693
403,"DEU:Magdeburg, Kreisfreie Stadt",52.12684240450005,11.629472058605277
404,FRA:Cher,47.02372305900008,2.575571646859804
405,ESP:Alicante/Alacant,38.36507480700004,-0.7481201181065553
406,ESP:Barcelona,41.760116315500056,2.0307008309731724
407,ESP:Fuerteventura,28.39850216350004,-14.004151813489475
408,ESP:Gran Canaria,27.956567100000058,-15.60531161349521
409,ESP:Lleida,42.06625917800005,1.1781995144377118
410,DEU:Harburg,53.31696167350006,9.908616071840903
411,DEU:Eichstätt,48.91058579450004,11.38924119304832
412,DEU:Greiz,50.76213394150005,12.087784887354225
413,DEU:Ilm-Kreis,50.730284515500045,10.92846693578859
414,"DEU:Münster, Kreisfreie Stadt",51.950250468000064,7.6128186844316925
415,DEU:Cuxhaven,53.58367782050007,8.882983941384753
416,FRA:Tarn-et-Garonne,44.08039471550006,1.2052929391693052
417,DEU:Fürstenfeldbruck,48.19136155150005,11.212001099966464
418,TUR:Erzurum,40.07530149650006,41.49419700104504
419,TUR:Muğla,36.94649280550004,28.646342079032035
420,"DEU:Weiden i. d. Opf, Kreisfreie Stadt",49.663870228000064,12.1714931494978
421,DEU:Cham,49.25868089400007,12.71749844280329
422,DEU:Siegen-Wittgenstein,50.91335973950007,8.133158177435007
423,ITA:Frosinone,41.629004698000045,13.576826460654974
424,ITA:Brindisi,40.637081345500064,17.721251902121303
425,DEU:Neunkirchen,49.36332279800004,7.090787608365934
426,DEU:Garmisch-Partenkirchen,47.56414783850005,11.083794613571186
427,DEU:Nordsachsen,51.44164951150006,13.038859891640753
428,POL:Żyrardowski,51.98679987150004,20.43817474097909
429,POL:Bytomski,50.583313331000056,18.85002500451796
430,DEU:Ostholstein,54.13856510650004,10.73739400812766
431,DEU:Börde,52.20093852100007,11.33472956031816
432,ITA:Udine,46.14151354550006,13.294504861960808
433,ITA:Nuoro,40.128137596000045,9.343018694609768
434,"DEU:Fürth, Kreisfreie Stadt",49.48869534000005,10.960110192777355
435,"DEU:Ansbach, Kreisfreie Stadt",49.28978544050005,10.560275920022509
436,DEU:Vorpommern-Rügen,54.230252038500055,12.808328061100593
437,DEU:Deggendorf,48.77613771500006,13.000076803941605
438,ITA:Pistoia,43.97328481950007,10.868344214460992
439,ITA:Forlì-Cesena,44.03402479100004,12.039665014352456
440,"DEU:Augsburg, Kreisfreie Stadt",48.36145394350007,10.902819177887416
441,TUR:Diyarbakır,38.10542172450005,40.22224028139426
442,TUR:Kastamonu,41.41922280050005,33.789602409975714
443,POL:Chełmsko-zamojski,50.81186383600004,23.296005592017814
444,POL:Sandomiersko-jędrzejowski,50.63167652700005,20.28469543999733
445,DEU:Altmarkkreis Salzwedel,52.666534538000064,11.177987160627552
446,ITA:Savona,44.23339778700006,8.252433041460977
447,DEU:Sonneberg,50.41779507850004,11.113782022731725
448,"DEU:Memmingen, Kreisfreie Stadt",47.98207782200004,10.16986038502173
449,DEU:Hohenlohekreis,49.26389869050004,9.62414942349954
450,DEU:Oberhavel,52.91855540250006,13.22765618369394
451,POL:Ełcki,53.91082967150004,22.130908500863896
452,POL:Bydgosko-toruński,53.137442787000055,18.285756381984527
453,"DEU:Rosenheim, Kreisfreie Stadt",47.850493380000046,12.113523359865685
454,DEU:Oder-Spree,52.25128887400007,14.266334972827266
455,DEU:Pinneberg,53.72838353550006,9.767019359916024
456,ITA:Torino,45.15802351650004,7.5132979075593
457,POL:Tarnobrzeski,50.32443130750005,22.39820769925192
458,POL:Łódzki,51.770287156500046,19.816072925653927
459,POL:Białostocki,53.286293687500034,23.40915269352474
460,DEU:Freising,48.441912881000064,11.720883206584542
461,ITA:Rieti,42.41860839100005,12.882655561546697
462,ITA:Perugia,43.105288591500056,12.40449900576453
463,DEU:Leipzig,51.22477425550005,12.55387152044564
464,DEU:Hameln-Pyrmont,52.09493497600005,9.414562220422996
465,DEU:Starnberg,47.976306688500046,11.289186314376623
466,POL:Rzeszowski,50.11326049650006,22.00579409591775
467,FRA:Charente,45.66549165100005,0.0988555752973643
468,DEU:Städteregion Aachen,50.72258736250007,6.193965894458374
469,DEU:Potsdam-Mittelmark,52.26679905100005,12.700488433165592
470,DEU:Lippe,51.993540024000055,8.919452533660603
471,FRA:Allier,46.36798604550006,3.163438775697561
472,FRA:Hérault,43.59225228500006,3.388448445160513
473,DEU:Westerwaldkreis,50.54431704150008,7.863119239147801
474,"DEU:Cottbus, Kreisfreie Stadt",51.77824676600005,14.382647641799098
475,DEU:Vogelsbergkreis,50.61170751200004,9.254100437280902
476,POL:Szczeciński,53.41825957700004,15.167429714948549
477,NLD:Midden-Limburg,51.187370974500055,5.912182747276795
478,DEU:Wesermarsch,53.36063094700003,8.347114143978079
479,DEU:Kitzingen,49.75299925900004,10.274037600622917
480,ESP:Sevilla,37.52041492950005,-5.653307476865858
481,ESP:Asturias,43.27191501000004,-5.851969998063956
482,TUR:Bilecik,40.11008552700005,30.128201171067104
483,TUR:Uşak,38.55240298850006,29.32578045808356
484,"DEU:Lübeck, Kreisfreie Stadt",53.88079436800007,10.72374491598888
485,DEU:Marburg-Biedenkopf,50.83392659650005,8.772258045427238
486,HRV:Zagrebačka županija,45.76828543550005,15.59240990206466
487,HRV:Karlovačka županija,45.32191132500006,15.488784700203
488,DEU:Wetteraukreis,50.33124744450007,8.93446857923953
489,ESP:Girona,42.07196881500008,2.843435312365196
490,ESP:Huesca,42.13716720950006,-0.0289571521186292
491,DEU:Bad Kissingen,50.22742714250006,10.002765399314107
492,ROU:Sălaj,47.15754712600005,23.031067656246005
493,ROU:Braşov,45.786781952500064,25.15410930929638
494,FRA:Haute-Corse,42.42310082950005,9.101046323921206
495,"DEU:Herne, Kreisfreie Stadt",51.53653575100006,7.212614098667228
496,DEU:Nordhausen,51.508325865000046,10.73352339169782
497,DEU:Dillingen a.d. Donau,48.61376538800005,10.54742759559159
498,DEU:Odenwaldkreis,49.66239972000005,8.969512822148374
499,"DEU:Frankfurt am Main, Kreisfreie Stadt",50.11968577250005,8.658141827019119
500,TUR:Hakkari,37.39612410700005,43.99739858867223
501,TUR:Kars,40.51737471200005,43.04359731835511
502,"DEU:Augsburg, Landkreis",48.36288366100007,10.686615526261049
503,DEU:Fulda,50.58119337450003,9.764039863435428
504,"DEU:Trier, Kreisfreie Stadt",49.77795631250004,6.663840387573924
505,DEU:Kelheim,48.80184096200006,11.921695614824271
506,"DEU:Darmstadt, Kreisfreie Stadt",49.873150071000055,8.662594742914884
507,ROU:Gorj,44.96130764100005,23.324014759850275
508,NLD:Het Gooi en Vechtstreek,52.27871206350005,5.156351061265222
509,NLD:Zuidwest-Gelderland,51.85980757650006,5.3203283759519735
510,DEU:Erzgebirgskreis,50.60201837100007,12.956666181163468
511,ITA:Pesaro e Urbino,43.693403228500046,12.70088489067437
512,FRA:Gironde,44.87946829300006,-0.6089007173614861
513,ESP:Albacete,38.72452034850005,-1.9543626415771804
514,ESP:Zamora,41.686580826500034,-5.9425946080037
515,ITA:Varese,45.84037579300005,8.754422635666689
516,"DEU:Essen, Kreisfreie Stadt",51.440724499000055,7.044317234234812
517,POL:Starogardzki,53.87860866650004,18.807034942833056
518,POL:Trójmiejski,54.42970636150005,18.522781638119525
519,DEU:Ostalbkreis,48.88728727250006,10.099213368332354
520,FRA:Maine-et-Loire,47.38876070400005,-0.3898917179264748
521,FRA:Seine-et-Marne ,48.619552981000055,3.041265167114698
522,ITA:Pisa,43.47103716800004,10.679071665270204
523,DEU:Ludwigslust-Parchim,53.45374243100008,11.477389500503024
524,DEU:Vorpommern-Greifswald,53.72438261850007,13.890924495962604
525,DEU:Ammerland,53.20708338850005,8.005871051358337
526,ITA:Imperia,43.95891932850003,7.8682438805995645
527,ITA:Rimini,43.946370270000045,12.628805540146882
528,ITA:Vicenza,45.636589969000056,11.407071295003608
529,ITA:Potenza,40.51637320950008,15.823083460794384
530,ITA:Messina,38.05065140200006,15.005937486998974
531,POL:Elbląski,53.790829949000056,19.8192066969464
532,FRA:Manche ,49.09432265800004,-1.244405244219705
533,FRA:Yonne,47.85735511600004,3.644318545942623
534,"DEU:Hof, Kreisfreie Stadt",50.31245058400006,11.882962519737962
535,DEU:Uelzen,52.98260855350006,10.535667209347888
536,DEU:Meißen,51.22998296950007,13.501821070894913
537,TUR:Sakarya,40.73166743600004,30.571821140998225
538,HUN:Győr-Moson-Sopron,47.64735639400007,17.186864830562822
539,HUN:Budapest,47.48061202800005,19.145847455515845
540,ITA:Viterbo,42.49219637250005,11.949742364991344
541,DEU:Forchheim,49.73132633900005,11.145597856281253
542,DEU:Hildesheim,52.09578920000007,9.927327311574691
543,FRA:Deux-Sèvres,46.537859790000056,-0.2998936257408328
544,FRA:Loiret,47.914980604500045,2.3060673926111592
545,POL:Słupski,54.32823335000006,17.28104357748311
546,POL:Leszczyński,52.15151845400007,16.339361619239888
547,ESP:Almería,37.30177367000008,-2.1845796382006686
548,ESP:Cuenca,39.93968445450005,-2.1524468968601638
549,"DEU:Heilbronn, Landkreis",49.20459698000008,9.294237456433866
550,TUR:Tunceli,39.18909712000004,39.350182030531485
551,DEU:Darmstadt-Dieburg,49.86258048400006,8.879513706492698
552,"DEU:Dresden, Kreisfreie Stadt",51.07604540050005,13.741115841754604
553,ITA:Trapani,37.87426098650005,12.716850563706185
554,DEU:Heinsberg,51.04437516550004,6.2077901330539245
555,"DEU:Leverkusen, Kreisfreie Stadt",51.055983769500045,7.013052113957613
556,ITA:Prato,43.932031478000056,11.09424593405432
557,ITA:Valle d’Aosta/Vallée d’Aoste,45.72990572650005,7.371748053651182
558,FRA:Drôme,44.730436274000056,5.204273151629712
559,FRA:Haute-Garonne,43.30599127000005,0.9706884758850096
560,POL:Sieradzki,51.52650648900004,18.813878818396795
561,POL:Katowicki,50.24015131300007,18.983500272663644
562,DEU:Kusel,49.54035196400005,7.455612104960433
563,DEU:Salzlandkreis,51.851029350500056,11.602708000139476
564,FRA:Alpes-de-Haute-Provence,44.16405730800005,6.184414003867025
565,ESP:Salamanca,40.763790924000034,-6.022417740995879
566,ESP:La Rioja,42.28327214700005,-2.4828031135403053
567,DEU:Stormarn,53.707596937000034,10.303822473997984
568,DEU:Haßberge,50.04500368800007,10.589490613262983
569,DEU:Celle,52.71287863850006,10.061365654215084
570,HUN:Szabolcs-Szatmár-Bereg,48.00536086850005,21.96819203112512
571,HUN:Zala,46.669849745500045,16.822240079092783
572,"DEU:Brandenburg an der Havel, Kreisfreie Stadt",52.40661014200006,12.527134069425152
573,DEU:Dingolfing-Landau,48.63781228750005,12.660838571777749
574,DEU:Enzkreis,48.91856666450005,8.843931111192349
575,FRA:Mayenne,48.150857118500056,-0.6499016435758819
576,ITA:Ancona,43.48242957700003,13.21718489415954
577,DEU:Recklinghausen,51.67333020000007,7.14414138573779
578,POL:Miasto Kraków,50.04721870950005,19.99890158939476
579,ITA:Enna,37.586075980500055,14.489818742710884
580,DEU:Bautzen,51.28547226150005,14.209918025218672
581,FRA:Loire,45.75402677450003,4.044472238462292
582,FRA:Vosges,48.161768465500046,6.380611431816165
583,ITA:Modena,44.538530778500046,10.9361135600948
584,ITA:Padova,45.391143604000064,11.806299595187848
585,BGR:Pazardzhik,42.14960079600005,24.15421188427824
586,BGR:Shumen,43.30746213800006,27.020895153122115
587,ITA:Reggio nell’Emilia,44.60842721350005,10.594153909477082
588,ITA:Vercelli,45.55612992050004,8.345623693384386
589,ITA:Crotone,39.18418392400005,16.87811681027646
590,ITA:Chieti,42.10264351200004,14.416213814630131
591,DEU:Rheingau-Taunus-Kreis,50.13376456300006,8.070963998061188
592,"DEU:Offenbach, Landkreis",50.04109849650004,8.816672611798785
593,TUR:Amasya,40.65713341600005,35.85636651543646
594,DEU:Biberach,48.12272048850005,9.717898126195518
595,NLD:Noord-Limburg,51.51118640550004,6.031660319535559
596,NLD:Zaanstreek,52.47945906800007,4.801185202392156
597,TUR:Adıyaman,37.81481009450005,38.209556530632
598,TUR:Trabzon,40.80849419350005,39.78104490223423
599,ROU:Hunedoara,45.79652688200005,22.943757878664265
600,ROU:Teleorman,44.06895525650006,25.19234399816674
601,FRA:Var,43.41749005850005,6.266727270635051
602,ESP:Córdoba,37.95618422350003,-4.847113605074618
603,"DEU:Tübingen, Landkreis",48.49331256800005,8.962635982957977
604,"DEU:Rosenheim, Landkreis",47.87194728900005,11.972868774973284
605,DEU:Waldeck-Frankenberg,51.22791873050005,8.933040196451259
606,TUR:Erzincan,39.54610663450004,39.05299614994913
607,TUR:İstanbul,41.26879106200005,28.4935337925956
608,DEU:Neustadt a. d. Aisch-Bad Windsheim,49.583922742000055,10.41502649841416
609,DEU:Bad Tölz-Wolfratshausen,47.73796050100003,11.527218826275462
610,DEU:Altenkirchen (Westerwald),50.75253950300004,7.797585818405057
611,FRA:Moselle,49.02160889550004,6.537182192743692
612,ITA:Taranto,40.54842369550005,17.08044657695637
613,SWE:Västra Götalands län,58.20689973350005,13.16249201042152
614,SWE:Skåne län,55.93461373700006,13.553335589037111
615,TUR:Yozgat,39.61828229950004,35.2996310511617
616,TUR:Kütahya,39.33392184950003,29.60665850836226
617,TUR:Kayseri,38.50786660300005,35.918578327776665
618,"DEU:Bremen, Kreisfreie Stadt",53.121299451000056,8.809623944862937
619,DEU:Mainz-Bingen,49.91672845100004,8.06730721287142
620,DEU:Anhalt-Bitterfeld,51.81724393900007,12.00944175852797
621,FRA:Vaucluse,43.99496473150006,5.1828780651638535
622,ITA:Cagliari,39.168908171000055,8.939602602907973
623,TUR:Antalya,36.77085979100005,31.877791443158078
624,DEU:Ostprignitz-Ruppin,53.00225239800005,12.704690724430026
625,PRT:Região Autónoma da Madeira,32.75256473300004,-16.982496284832198
626,PRT:Alto Alentejo,39.205892850000055,-7.721259779674546
627,ITA:Grosseto,42.77544899800006,11.285228742253402
628,TUR:Giresun,40.56331311950004,38.43983686847248
629,ITA:Sondrio,46.32180947100005,10.257638694872728
630,ROU:Vaslui,46.496854056000046,27.804474298355647
631,ROU:Satu Mare,47.72609250250005,22.752360252257148
632,DEU:Segeberg,53.87820550900005,10.097331603578803
633,ITA:Gorizia,45.86207408550007,13.498021933090318
634,"DEU:Kaiserslautern, Landkreis",49.45208732450007,7.575028548378231
635,DEU:Gotha,50.91312949200005,10.714478419358375
636,FRA:Val-de-Marne,48.77560454750005,2.455115514596596
637,"DEU:Bamberg, Landkreis",49.90642004500003,11.066165948288855
638,TUR:Kırşehir,39.30736108000005,34.04367324525471
639,HRV:Ličko-senjska županija,44.69715355900004,15.426598678990167
640,POL:Bialski,51.775482415000056,23.011843812636307
641,POL:Nowosądecki,49.56452151750005,20.84424512249732
642,NLD:Agglomeratie Leiden en Bollenstreek,52.20489344300006,4.55620707952941
643,NLD:Veluwe,52.22953166700006,5.771537795666957
644,ROU:Prahova,45.10815383700006,26.038957738585445
645,ESP:Valencia/València,39.33404678750006,-0.8019770714363135
646,ESP:Soria,41.60141172000005,-2.72147948535578
647,BGR:Plovdiv,42.233338009500045,24.789656313673028
648,"DEU:Dortmund, Kreisfreie Stadt",51.50703034900005,7.450592126859695
649,POL:Piotrkowski,51.307654576500056,19.626719088989525
650,POL:Bielski,49.67626844850005,19.10764756936657
651,CHE:Graubünden / Grigioni / Grischun,46.61745478450004,9.564102828874317
652,CHE:Zürich,47.42456764150003,8.651451168239692
653,TUR:Ağrı,39.46819477700007,43.46581233307746
654,HUN:Békés,46.73614395000007,21.05674424850893
655,HUN:Veszprém,47.11619600450004,17.719438833512022
656,FRA:Lot-et-Garonne,44.37034222300008,0.4545535688478884
657,DEU:Saalekreis,51.45494627650007,11.85011082699206
658,DEU:Bad Dürkheim,49.46845854600005,8.114453184431602
659,FRA:Haut-Rhin,47.86755741950006,7.2321208491127535
660,FRA:Hauts-de-Seine ,48.84007861250007,2.198830728657129
661,DEU:Landkreis Rostock,53.92122265900005,12.295851836419894
662,ITA:Bolzano-Bozen,46.65554139750006,11.231066401963332
663,TUR:Çanakkale,39.96603237350007,26.843538393518863
664,TUR:Aksaray,38.51453912850005,33.865252817715955
665,TUR:Balıkesir,39.80132206950006,27.98277198428768
666,DEU:Traunstein,47.89590470650006,12.652626458721745
667,DEU:Saarpfalz-Kreis,49.26179514600005,7.199286156610807
668,CHE:Neuchâtel,47.01124996950006,6.837770235359288
669,DEU:Kyffhäuserkreis,51.31539793200005,10.838429833349744
670,ROU:Ialomiţa,44.59722536900006,27.20314584446597
671,ROU:Galaţi,45.77794108300006,27.74835314569446
672,DEU:Ravensburg,47.80238005150005,9.77641689330812
673,FRA:Ardèche,44.81509673050007,4.39877980753285
674,CHE:Jura,47.32780495500003,7.288912561032435
675,POL:Grudziądzki,53.26764658600004,19.003939867914838
676,POL:Ciechanowski,52.82576368550008,20.45784993187169
677,TUR:Konya,38.017629070000055,32.40510062847539
678,TUR:Batman,38.01884407150004,41.30997068387502
679,DEU:Alzey-Worms,49.74392993200007,8.202514117801861
680,FRA:Seine-Saint-Denis ,48.91193836350007,2.452476066197147
681,FRA:Paris,48.857971244000055,2.3198785788975886
682,TUR:Zonguldak,41.29891349400006,31.8293896939812
683,ESP:Málaga,36.79629998300004,-4.5467261235657
684,ESP:Mallorca,39.61265576450003,2.882312571261856
685,ROU:Brăila,45.12052686550007,27.66729456445228
686,"DEU:Pirmasens, Kreisfreie Stadt",49.18773081450007,7.593265817657582
687,FRA:Loire-Atlantique,47.34856816150005,-1.8725765834592925
688,DEU:Eichsfeld,51.39071423600007,10.230087263286476
689,POL:Wałbrzyski,50.56009107550005,16.746798420730173
690,POL:Inowrocławski,52.891744843000055,18.027770549758
691,DEU:Rottweil,48.237716708500045,8.499831928063312
692,PRT:Tâmega e Sousa,41.22557280400005,-8.093109525767236
693,FRA:Aisne,49.45045699450003,3.609593262170317
694,POL:Nowotarski,49.504804490000055,19.998341609023456
695,TUR:Gaziantep,37.10558545900005,37.234594801169095
696,"DEU:Hagen, Kreisfreie Stadt",51.34291110650005,7.4875080169474835
697,ITA:Brescia,45.77225414550006,10.422991000027327
698,ITA:Lecco,45.90242856550006,9.412869102775124
699,FRA:Somme,49.970823802500064,2.3761966052598837
700,ESP:La Gomera,28.11997249950005,-17.225570905211605
701,ESP:Burgos,42.32538152850006,-3.67701500562906
702,"DEU:Chemnitz, Kreisfreie Stadt",50.82238567550005,12.88767902643714
703,NLD:Midden-Noord-Brabant,51.61013708600004,5.093398135321873
704,NLD:Agglomeratie ’s-Gravenhage,52.07875769150007,4.381968460851562
705,ITA:Lecce,40.15297632450006,18.22551823816829
706,ITA:Teramo,42.66205100700006,13.69450016112426
707,NLD:Zeeuwsch-Vlaanderen,51.303354851500046,3.886236802491687
708,NLD:Overig Groningen,53.26855063300008,6.580516736921352
709,FRA:Mayotte ,-12.828959663499944,45.14869603677991
710,FRA:Doubs,47.06556628650006,6.237406457783708
711,ITA:Livorno,42.790106930000064,10.33882804591148
712,ITA:Venezia,45.57750878050004,12.64215029608617
713,DEU:Hersfeld-Rotenburg,50.90192302500006,9.764575935206675
714,ESP:Palencia,42.40816813050006,-4.61893106073844
715,ESP:Lugo,43.04075275650007,-7.447991749594156
716,ITA:Alessandria,44.83517217650004,8.743340488726124
717,TUR:Sivas,39.52950178250006,37.198755363982045
718,SRB:Nišavska oblast,43.43310619050004,21.95914895505253
719,SRB:Severnobanatska oblast,45.88837234150006,20.19044657231626
720,"DEU:Offenbach am Main, Kreisfreie Stadt",50.09378445100006,8.783738254719317
721,ITA:Massa-Carrara,44.226106854500046,10.048787800352738
722,ITA:Siena,43.16700843450008,11.46619303910472
723,NLD:West-Noord-Brabant,51.56135432200003,4.549330497609995
724,NLD:Zuidoost-Zuid-Holland,51.83437713550006,4.793692753665643
725,BGR:Vratsa,43.40177540150006,23.716178075861684
726,"DEU:Kempten (Allgäu), Kreisfreie Stadt",47.73664112150004,10.313796098196388
727,POL:Lubelski,51.27646089750005,22.7617777635325
728,POL:Tarnowski,50.04128378400003,20.880747864591207
729,ESP:Bizkaia,43.23917273750004,-2.8511295597341766
730,ESP:Pontevedra,42.36343819450008,-8.533924750728751
731,TUR:Elazığ,38.71483336900008,39.36042853510653
732,TUR:Ordu,40.739341097500045,37.54433180212186
733,ITA:Reggio Calabria,38.24462324550007,15.976501395191924
734,PRT:Médio Tejo,39.53483052800004,-8.333065667277728
735,PRT:Península de Setúbal,38.62742009050004,-8.842292332787618
736,POL:Gorzowski,52.59737215150005,15.208812225414585
737,FRA:Indre,46.81105968000003,1.5342323303331706
738,POL:Przemyski,49.99108274800005,22.737363046545703
739,ITA:Benevento,41.24737311750005,14.70429234521461
740,FRA:Gers,43.69473286600007,0.4094730217529386
741,TUR:Muş,39.01145675800007,41.94534093952734
742,HUN:Heves,47.78870144950005,20.081100544155568
743,HUN:Baranya,46.077131477500046,18.218999571464792
744,NLD:Overig Zeeland,51.57334462000006,3.70388893169037
745,NOR:Rogaland,59.05957659800006,6.356902968341734
746,NOR:Finnmark/Finnmárku/Finmarkku,69.84283718800006,24.44275123037653
747,BGR:Lovech,43.04390118400005,24.490014139583707
748,BGR:Pleven,43.481700665000034,24.604781445886093
749,DEU:Südliche Weinstraße,49.17153797600005,7.950017070190059
750,HRV:Koprivničko-križevačka županija,46.11767199700006,16.779268719914324
751,HRV:Bjelovarsko-bilogorska županija,45.77794104550006,16.897689881504824
752,"DEU:Potsdam, Kreisfreie Stadt",52.429393999500064,13.025038975942858
753,ITA:Terni,42.65281949650006,12.441080843132715
754,ITA:Salerno,40.41793040950003,15.313071399822917
755,NLD:Oost-Groningen,53.05121979250006,7.02505197455575
756,NLD:Twente,52.30546973750003,6.685473270133629
757,NLD:Flevoland,52.54748382700004,5.466944376238102
758,NLD:Zuidwest-Drenthe,52.77064652100003,6.3336566929960245
759,ITA:L’Aquila,42.13725304400006,13.613494354224752
760,HUN:Vas,47.08726020950007,16.842991795071665
761,NLD:Noordoost-Noord-Brabant,51.66939926350005,5.533220344082045
762,NLD:Zuidwest-Friesland,52.95985081950005,5.545051297553812
763,HUN:Hajdú-Bihar,47.45442029950004,21.511138074883903
764,POL:Płocki,52.62081399200005,19.77475433799103
765,ESP:Granada,37.38960480700007,-3.2393785030417845
766,ESP:Huelva,37.50755725950003,-6.924822497255386
767,POL:Kielecki,50.93851130300004,20.88568690508547
768,POL:Gliwicki,50.36502325300006,18.518364129426352
769,CHE:Thurgau,47.53904778350005,9.164411025559906
770,BGR:Vidin,43.80333153350006,22.67952771079124
771,FRA:Vienne,46.61191625950005,0.4650453864283794
772,FRA:Ille-et-Vilaine,48.16758754700004,-1.6512064419196524
773,ITA:Catanzaro,38.827105374500064,16.425288726028278
774,ITA:La Spezia,44.23689833200007,9.69093076701474
775,ROU:Neamţ,46.99143010750007,26.51477361795638
776,BGR:Smolyan,41.62586360700004,24.593637841205044
777,BGR:Stara Zagora,42.41251861000006,25.549933221008576
778,"DEU:Bochum, Kreisfreie Stadt",51.47592895100004,7.228617886094664
779,BGR:Veliko Tarnovo,43.21600244300004,25.611115627618705
780,BGR:Montana,43.47979944800005,23.116723759750634
781,DEU:Main-Tauber-Kreis,49.57246679550005,9.671912866803968
782,SRB:Srednjobanatska oblast,45.433171303500046,20.51322207815174
783,SRB:Severnobačka oblast,45.90046420400006,19.583474014975227
784,ITA:Napoli,40.79547743750007,14.46184774344539
785,DEU:Waldshut,47.70381855200006,8.194906370249416
786,FRA:Pyrénées-Orientales,42.62453309450004,2.507650060825719
787,FRA:Isère,45.29075644400007,5.635729574058562
788,ITA:Lucca,44.01547361950006,10.449051822755315
789,ITA:Catania,37.505260897000056,14.943938743188284
790,ITA:Verbano-Cusio-Ossola,46.11551004750004,8.383639553673351
791,DEU:Sigmaringen,48.05186941400007,9.238214997206086
792,ESP:Castellón/Castelló,40.25283130850005,-0.0602019030153027
793,TUR:Kahramanmaraş,37.89777475100004,36.89687586757116
794,BGR:Haskovo,41.76402405300004,25.92621004533837
795,BGR:Sofia (stolitsa),42.654144021000064,23.33329146687696
796,BGR:Ruse,43.70002932400004,26.087956682587013
797,SWE:Hallands län,56.95985606350004,13.022153357131533
798,SWE:Kalmar län,57.22037320250007,16.00290675525958
799,ITA:Pescara,42.30869620900006,13.957580513504062
800,DEU:Rhein-Pfalz-Kreis,49.42914011650007,8.314042754234558
801,TUR:Ardahan,41.10998972650003,42.92692675479658
802,TUR:Aydın,37.74112868900005,28.057137594768147
803,FRA:Corse-du-Sud,41.874802314500045,9.009226644308804
804,ITA:Trento,46.103615133000034,11.135759919482282
805,POL:Miasto Łódź,51.773502455000056,19.478474970057707
806,POL:Jeleniogórski,51.06438420250004,15.656871555181388
807,POL:Miasto Wrocław,51.12669855200005,16.98106847358314
808,NLD:Delfzijl en omgeving,53.32936561900007,6.770623204417004
809,NLD:Achterhoek,52.03699679400003,6.449501213346977
810,TUR:Van,38.53904649000003,43.58999443728138
811,TUR:Tokat,40.38691421600007,36.65625522792492
812,TUR:Bolu,40.57124280650004,31.58697295173494
813,ROU:Bacău,46.42269452650004,26.715235496553333
814,SRB:Podunavska oblast,44.46487775950007,21.001892477195668
815,SRB:Zapadnobačka oblast ,45.73107028000004,19.231039583510807
816,POL:Siedlecki,52.15680487900005,22.44722620519325
817,POL:Oświęcimski,50.10348103050006,19.389591085079232
818,FRA:Côtes-d’Armor,48.45064124900006,-2.7435496687891106
819,ITA:Piacenza,44.847592253000045,9.666492689410042
820,FRA:Pyrénées-Atlantiques,43.18697760650005,-0.7276094818736735
821,NLD:Zuidoost-Noord-Brabant,51.41170467250007,5.49689378788534
822,NLD:Alkmaar en omgeving,52.638660953000056,4.749938785135933
823,POL:Zielonogórski,51.87108279650005,15.4265892975613
824,POL:Kaliski,51.62510973600007,17.914831779454744
825,FRA:Hautes-Pyrénées ,43.14318883600004,0.1570224023825902
826,SRB:City of Belgrade,44.680620244500034,20.38117928622452
827,POL:Szczecinecko-pyrzycki,53.31366584400004,16.08354363312558
828,POL:Miasto Poznań,52.40067353950005,16.919810638617825
829,ITA:Palermo,37.87906356800005,13.60926705167181
830,FRA:Creuse,46.06104893200006,2.0501113392362726
831,BGR:Kardzhali,41.56845577600004,25.39535063932005
832,ALB:Gjirokastër,40.15333026900004,20.21601330914512
833,ALB:Dibër,41.61291285650003,20.188493801668148
834,ESP:León,42.62991046950003,-5.971001316208753
835,ESP:Madrid,40.52170160700007,-3.767642378426471
836,BGR:Yambol,42.31203479250007,26.563498193034302
837,BGR:Razgrad,43.63994884150006,26.70272847198416
838,ALB:Berat,40.61872477900005,20.100750498761634
839,ALB:Shkodër,42.24948537800006,19.59558375853628
840,TUR:Afyonkarahisar,38.52497008000006,30.61579311126034
841,ITA:Treviso,45.80480002300007,12.208682596353473
842,FRA:Alpes-Maritimes,43.922600997000046,7.240819895291147
843,FRA:Ardennes,49.69752753900005,4.672040747746682
844,PRT:Viseu Dão Lafões,40.67785229800003,-7.9237911618730354
845,PRT:Região de Coimbra,40.219052947500046,-8.338609497596664
846,FRA:Finistère,48.24575017200007,-3.826229888781788
847,FRA:Eure-et-Loir,48.44778384700007,1.399054062794841
848,POL:Opolski,50.67214398750005,17.995878183972394
849,TUR:Bitlis,38.49902893700005,42.22483954882568
850,ITA:Cuneo,44.46053245250005,7.555258774527655
851,HRV:Splitsko-dalmatinska županija,43.52958945450007,16.785369235302284
852,FRA:Haute-Savoie,46.06960578850004,6.345360208228105
853,FRA:Aveyron,44.31636044800004,2.50630491352627
854,PRT:Baixo Alentejo,37.825368692500064,-7.856928219196557
855,ESP:Cádiz,36.53225553000004,-5.920571285172713
856,ESP:Tarragona,41.05338650550007,0.6270863050618757
857,FRA:Essonne,48.531401379000044,2.2399008638440607
858,ITA:Firenze,43.84599171150006,11.374230815492274
859,TUR:Kırıkkale,39.86579319100005,33.686405546667686
860,POL:Ostrołęcki,52.97474143950004,21.39635657314395
861,TUR:Burdur,37.32198154050005,30.616768317628512
862,ROU:Argeş,44.99310253000007,24.848158942504725
863,NOR:Østfold,59.32478057800006,11.285318092879288
864,MNE:Crna Gora,42.69920231000003,19.2958816690793
865,HRV:Požeško-slavonska županija,45.38090887750005,17.765386831871375
866,NLD:Zuid-Limburg,50.91231905850006,5.905241331830132
867,NLD:Noord-Overijssel,52.64055458050007,6.189417231960638
868,ITA:Ravenna,44.36509159350007,12.059135438518648
869,TUR:Bingöl,39.01863965200005,40.72056619092898
870,ITA:Caltanissetta,37.37481579550004,13.98080979008478
871,ROU:Călăraşi,44.31466962950003,27.138301405520643
872,ESP:El Hierro,27.738190833500056,-18.039480671423505
873,ESP:Badajoz,38.69706508000005,-6.220354224100653
874,TUR:Siirt,37.921687631000026,42.09653062163128
875,CHE:Schaffhausen,47.72588567850005,8.585527967426824
876,ITA:Bari,40.95843937000004,16.771514026199952
877,SRB:Raška oblast,43.35626488200003,20.64437520401668
878,FRA:Aude,43.05453147850005,2.5126474241098364
879,NLD:Delft en Westland,51.98531008750007,4.27181431532249
880,CHE:Schwyz,47.054180884500056,8.702141603743176
881,CZE:Jihočeský kraj,49.08754103850004,14.600110735182517
882,CZE:Středočeský kraj,50.060095487500064,13.830670995029024
883,ITA:Trieste,45.69313014900004,13.785018751954023
884,ITA:Barletta-Andria-Trani,41.16844651300005,16.137785729823285
885,NLD:Zuidoost-Drenthe,52.80907538450006,6.878958968654048
886,FRA:Gard,43.95977139650006,4.295850267143211
887,POL:Nyski,50.58385165400006,17.32119236128858
888,FRA:Calvados ,49.091879681500046,-0.2373520898413708
889,ITA:Como,45.94185223300005,9.145683013274798
890,ITA:Ragusa,36.91652596800006,14.64481407607477
891,SRB:Toplička oblast,43.13660786150004,21.41002506305281
892,ITA:Latina,41.45980549400005,13.012458566742575
893,TUR:Rize,40.92342427150004,40.815440348662776
894,ITA:Fermo,43.08947869200006,13.639350595225444
895,ESP:Teruel,40.59881203300006,-0.9214764144525668
896,ITA:Bergamo,45.75826741800006,9.752786663630248
897,FRA:Vendée,46.67502555100006,-1.2902247164034095
898,CHE:Uri,46.76086845800006,8.632819670626912
899,CHE:Fribourg / Freiburg,46.72267054200006,7.110754071439823
900,NLD:Agglomeratie Haarlem,52.376715764500034,4.60099351242313
901,NLD:Noord-Drenthe,52.97003184100007,6.619466031029903
902,ITA:Monza e della Brianza,45.63827798300005,9.277865649477064
903,FRA:Loir-et-Cher,47.65982366450004,1.2974917749500117
904,ROU:Covasna,45.89631350100004,26.008710821767483
905,POL:Sosnowiecki,50.42188218400005,19.328570665598665
906,FRA:Charente-Maritime,45.73121393950004,-0.7174357625585605
907,ITA:Pavia,45.03720512750007,9.137104654421186
908,DEU:Gifhorn,52.575085802000046,10.661787194020109
909,TUR:Hatay,36.41439221850007,36.22729874934922
910,FRA:Oise,49.41157327550005,2.406089651817915
911,ESP:Zaragoza,41.84402038850007,-1.170849419808773
912,ROU:Maramureş,47.66958288050006,24.1949995194325
913,ROU:Bihor,46.99181636850005,22.192091448998788
914,ESP:Valladolid,41.70412361100006,-4.697091012250786
915,BGR:Gabrovo,42.95852011550005,25.21255452507349
916,TUR:Osmaniye,37.33798396200004,36.29573173241604
917,ITA:Campobasso,41.719138028500055,14.823781924272229
918,FRA:Haute-Saône,47.63868120850006,6.095248729160197
919,NOR:Telemark,59.48018529800004,8.57890081450255
920,NOR:Møre og Romsdal,62.52811589350006,8.393670440306696
921,NOR:Vestland,60.89700708150005,6.181263504780105
922,NLD:Oost-Zuid-Holland,52.05736420050005,4.728793572646924
923,POL:Miasto Szczecin,53.43106370150005,14.59309720650167
924,FRA:Morbihan,47.82613526450004,-2.7150207223849963
925,CZE:Zlínský kraj,49.19897370600006,17.64719705605131
926,CZE:Pardubický kraj,49.88868840200007,16.128506638031205
927,CHE:Ticino,46.22631159650004,8.790071057858132
928,ITA:Isernia,41.64796048100004,14.207976610115317
929,TUR:Gümüşhane,40.33427731500007,39.42251071468446
930,TUR:Çankırı,40.67327531700005,33.443141735687114
931,TUR:Sinop,41.64916592650003,34.99211290411401
932,TUR:Edirne,41.293900314500064,26.695632058783275
933,FRA:Indre-et-Loire,47.22160836450007,0.6872837576887819
934,TUR:Samsun,41.27749937500008,35.8784310476067
935,CZE:Ústecký kraj,50.56715117950006,13.82271887264945
936,ESP:Lanzarote,29.039149031500045,-13.636665816046854
937,TUR:İzmir,38.60257991900005,27.019102699979527
938,NLD:Arnhem/Nijmegen,51.91497585900007,5.918755976652031
939,TUR:Manisa,38.746886921000055,28.094421018837924
940,NLD:Groot-Rijnmond,51.85470422200007,4.353465176976336
941,NLD:Zuidwest-Overijssel,52.346127273000064,6.206481580247728
942,TUR:Tekirdağ,41.07664339050004,27.38981325442136
943,FRA:Lot,44.62223363600006,1.666345244361307
944,TUR:Yalova,40.60334379650004,29.216598968694683
945,ESP:Ceuta,35.894265302000065,-5.3471902688858375
946,FRA:Nord,50.52983151300006,3.087340256241931
947,BGR:Pernik,42.62861512650005,22.88216712136907
948,ROU:Bucureşti,44.436768659500046,26.08602218847281
949,TUR:Karaman,36.997192529000046,33.190713338289726
950,ESP:Araba/Álava,42.84685163200004,-2.681504930102382
951,TUR:Adana,37.47273373500005,35.370823989541165
952,SVN:Savinjska,46.23946149900004,15.338949634738928
953,HRV:Varaždinska županija,46.20895230800005,16.44437952990273
954,HRV:Virovitičko-podravska županija,45.73400970200004,17.645222830516424
955,SWE:Södermanlands län,59.06841945900007,16.507199595404842
956,TUR:Bursa,40.10491067600003,28.937182814896364
957,POL:Koniński,52.27872349700005,18.232971495041497
958,ESP:Gipuzkoa,43.143589420500064,-2.205139585800379
959,ESP:Ourense,42.19269801600004,-7.536621236336593
960,ROU:Ilfov,44.50242185800005,26.246767656392585
961,BGR:Sofia,42.64196716950005,23.972149124268757
962,SRB:Pirotska oblast,43.13121899100005,22.634927472253864
963,ESP:Eivissa y Formentera,38.97590123050006,1.4193487169319368
964,SWE:Västerbottens län,64.87952934700007,18.0260600039014
965,SWE:Örebro län,59.37954696050008,14.988012014693428
966,POL:Chojnicki,53.846333158500045,17.47065992478335
967,POL:Skierniewicki,52.01298887550002,19.969214962099425
968,POL:Radomski,51.43588189700006,21.169241338211293
969,PRT:Lezíria do Tejo,39.107116399000034,-8.631275396840447
970,ITA:Milano,45.45368007500005,9.111517565313427
971,ESP:Guadalajara,40.74142346900004,-2.5050392600436364
972,CZE:Hlavní město Praha,50.05891771250006,14.446672962295107
973,MKD:Pelagoniski,41.22718249950006,21.45000042937001
974,MKD:Vardarski,41.56133425050004,21.837739928334763
975,ESP:Navarra,42.61276003500004,-1.830042410109936
976,POL:Wrocławski,51.130541911500046,17.356184631623094
977,PRT:Oeste,39.33066203150005,-9.178344099056453
978,MKD:Jugoistočen,41.449222832500055,22.65676999469024
979,MKD:Istočen,41.83651134900006,22.52346685379225
980,ITA:Biella,45.56598028900007,8.087414234018595
981,POL:Rybnicki,50.07888345050006,18.38716240857519
982,PRT:Alentejo Central,38.58647716200005,-7.95934885910339
983,CHE:Basel-Landschaft,47.45104226500004,7.822936260030518
984,SRB:Sremska oblast,44.91861522700006,19.971132166481212
985,ROU:Caraş-Severin,45.13074758450006,22.073981945529887
986,ROU:Constanţa,44.26952091200005,28.2921302344391
987,FRA:Tarn,43.79205553950004,2.134091645657027
988,CZE:Moravskoslezský kraj,49.859990643500055,18.038896828705965
989,CZE:Jihomoravský kraj,49.12878466500007,16.679890661758662
990,PRT:Beira Baixa,39.93112062100005,-7.510502382166805
991,POL:Poznański,52.40821960400007,16.614177678373792
992,NOR:Svalbard,79.85629208200004,22.7452938887265
993,ROU:Dâmboviţa,44.926280303000055,25.481864890544884
994,ROU:Iaşi,47.20109619850004,27.191314388218085
995,FRA:Saône-et-Loire,46.65803556850005,4.560230459453947
996,SWE:Västernorrlands län,63.078877385000055,17.64340036697802
997,SWE:Kronobergs län,56.79765867500007,14.405021072965647
998,PRT:Terras de Trás-os-Montes,41.594074536500045,-6.729605456433463
999,POL:Pilski,53.113021319500064,16.85672938527687
1000,FRA:Yvelines ,48.76243314100006,1.8917292741527336
1001,BGR:Kyustendil,42.33754350950005,22.88865327788433
1002,ESP:Ciudad Real,38.96144028050006,-3.885563972559142
1003,POL:Warszawski zachodni,52.27309264750005,20.608886851308966
1004,PRT:Área Metropolitana do Porto,41.11593670800005,-8.524942835517031
1005,FRA:Jura,46.78207042300005,5.782470508366323
1006,SWE:Västmanlands län,59.69628309000007,16.18355664938695
1007,ROU:Arad,46.28990826650005,21.892663377202656
1008,SWE:Jämtlands län,63.34650765950008,14.124129416948788
1009,POL:Warszawski wschodni,52.21692637350006,21.55794852607204
1010,HUN:Fejér,47.13068815450006,18.550091856055545
1011,ROU:Alba,46.01278716100006,23.54553757552529
1012,HRV:Primorsko-goranska županija,45.35135346150005,14.762841427275182
1013,ESP:Melilla,35.29265108100003,-2.951647995916824
1014,SRB:Pčinjska oblast,42.53303749800003,22.10069226232929
1015,ESP:Tenerife,28.295099332000035,-16.620662869507697
1016,FRA:Orne,48.57968280300005,0.0423307961815314
1017,ROU:Buzău,45.26553210100005,26.77520486358824
1018,CZE:Kraj Vysočina,49.40079779550007,15.57089294086718
1019,SWE:Jönköpings län,57.53147493000006,14.641251363052794
1020,SWE:Östergötlands län,58.36034729000005,15.6271110154318
1021,ESP:Segovia,41.10883397450005,-4.183805510118308
1022,TUR:Bartın,41.57755364700004,32.490921751088145
1023,ROU:Suceava,47.53172852100005,25.83432172023486
1024,CHE:Vaud,46.56157385700004,6.517403993174155
1025,HRV:Krapinsko-zagorska županija,46.089057419000056,15.933567682694711
1026,HRV:Sisačko-moslavačka županija,45.33373288800004,16.490558900297295
1027,DNK:Sydjylland,55.38103284350004,9.130886497549142
1028,DNK:Østsjælland,55.57477594750006,12.075557106360662
1029,FRA:Martinique ,14.638459065000063,-61.0171380669684
1030,TUR:Eskişehir,39.60906849500006,31.06198291593877
1031,SVN:Podravska,46.48117709550005,15.745790285016891
1032,HUN:Jász-Nagykun-Szolnok,47.21758046150004,20.52092444945378
1033,HUN:Somogy,46.42215988100003,17.598996762951465
1034,HRV:Dubrovačko-neretvanska županija,42.94236474400006,16.90739482457226
1035,HRV:Brodsko-posavska županija,45.21800544050004,17.395938033274454
1036,CHE:Nidwalden,46.89578515400007,8.403692503683326
1037,CZE:Olomoucký kraj,49.85909961900006,16.955661438782244
1038,SWE:Dalarnas län,61.06015762300007,14.213384220270788
1039,PRT:Douro,41.16876922900005,-7.30712214921776
1040,ESP:La Palma,28.658711694000036,-17.85907895562592
1041,POL:Miasto Warszawa,52.23302913900005,21.070581848751864
1042,ALB:Vlorë,40.16064830550005,19.74695351837361
1043,SRB:Zlatiborska oblast,43.58725820150005,19.75992728193725
1044,PRT:Cávado,41.61753337850004,-8.548314768214478
1045,SRB:Rasinska oblast,43.50064569650005,21.17822771668116
1046,SRB:Južnobanatska oblast,44.99557222800007,20.93749001883204
1047,SWE:Uppsala län,60.01678588100006,17.581345051856584
1048,ESP:Murcia,38.06419952400006,-1.6719232640515669
1049,NLD:Noord-Friesland,53.230255728500055,5.843871126521024
1050,NLD:Zuidoost-Friesland,52.97965170400005,6.1467121232163455
1051,PRT:Alto Minho,41.88252747750005,-8.522664413118001
1052,NLD:Utrecht,52.07988179850005,5.144115809650403
1053,FRA:Bas-Rhin,48.59892884550004,7.534383607289799
1054,POL:Legnicko-głogowski,51.45166958800007,16.139218075122386
1055,HUN:Komárom-Esztergom,47.57879378100003,18.30521068102432
1056,ESP:Menorca,39.95035105400004,4.0497363043905645
1057,CHE:Obwalden,46.87089521400006,8.200073931400855
1058,ESP:Cantabria,43.13570550750006,-4.264261444415774
1059,SRB:Mačvanska oblast,44.52142870350005,19.50611296320887
1060,CZE:Karlovarský kraj,50.17489535400006,12.804716582956528
1061,HRV:Međimurska županija,46.423926147500055,16.482520381859445
1062,CHE:Luzern,47.03107259250004,8.190727606063742
1063,SVN:Jugovzhodna Slovenija,45.722999740000034,14.902598367475704
1064,CHE:Solothurn,47.28518894650006,7.573415390973912
1065,HUN:Tolna,46.482849059000046,18.482554209381057
1066,DNK:Nordsjælland,55.91184098450006,12.28540835984596
1067,DNK:Byen København,55.641773290500026,12.575271289415465
1068,SVN:Obalno-kraška,45.64529095250006,13.990566846382745
1069,SVN:Koroška,46.52308886950004,15.077209979572238
1070,PRT:Alentejo Litoral,37.96619482500006,-8.586352416468765
1071,EST:Lõuna-Eesti,58.29037813350007,26.33015042855096
1072,EST:Põhja-Eesti,59.33094752550005,25.013026023257204
1073,NOR:Agder,58.82011227800007,7.871552863903737
1074,DNK:Vestjylland,56.28795755000005,8.69189899031787
1075,HRV:Šibensko-kninska županija,43.85304846500006,16.015242730068465
1076,HUN:Borsod-Abaúj-Zemplén,48.11404432350005,20.95085141031961
1077,CHE:Zug,47.16660566950006,8.536723506195946
1078,CHE:Bern / Berne,46.822868595000045,7.617203187121813
1079,ROU:Bistriţa-Năsăud,47.17735980900005,24.54035056693245
1080,SRB:Južnobačka oblast,45.44904287600005,19.768245713256512
1081,ALB:Tiranë,41.25648987500006,19.812068476322278
1082,ALB:Durrës,41.41982610950004,19.53333233785355
1083,SRB:Pomoravska oblast,44.02213228100004,21.44147302478553
1084,PRT:Região de Leiria,39.776148286500046,-8.84643023495499
1085,HRV:Grad Zagreb,45.79100527350005,15.982206387997376
1086,CHE:Appenzell Innerrhoden,47.31139994700007,9.405591518684002
1087,NOR:Nordland/Nordlánnda,66.77249459650005,14.695541420373887
1088,SWE:Värmlands län,59.89089799900003,13.294833755496803
1089,HUN:Csongrád-Csanád,46.46290401450005,20.25184691850125
1090,DNK:Vest- og Sydsjælland,54.78010919400006,11.412291985452278
1091,HRV:Zadarska županija,44.17849571350004,15.34070551150159
1092,FRA:Rhône,45.87867536350007,4.615601651119633
1093,ROU:Cluj,46.88675975800004,23.714312511093784
1094,FRA:Côte-d’Or,47.46704543400003,4.754669003201207
1095,DNK:Nordjylland,56.81308119550005,9.727310642651208
1096,FRA:Bouches-du-Rhône,43.542608777000055,5.033746533280292
1097,BGR:Dobrich,43.66220108750005,27.888948985404525
1098,ALB:Kukës,42.18986161450008,20.377267910396107
1099,PRT:Alto Tâmega e Barroso,41.65978564100007,-7.612162025963849
1100,ALB:Lezhë,41.78784274450004,19.88421268635831
1101,NOR:Vestfold,59.31782725300005,10.146506114500797
1102,SWE:Norrbottens län,67.05705490850005,20.038460733077518
1103,SVN:Primorsko-notranjska,45.683019656000056,14.316614200401562
1104,HUN:Pest,47.50113884850006,19.538465483913743
1105,SVN:Posavska,45.94288075750006,15.52476235853248
1106,CZE:Plzeňský kraj,49.51852395700007,13.205135315959687
1107,NLD:IJmond,52.502377712000055,4.664510849704898
1108,BGR:Blagoevgrad,41.753672931500034,23.4848236758599
1109,SVN:Gorenjska,46.26393941450005,14.159506619204988
1110,SWE:Gotlands län,57.41849867500008,18.536388537632117
1111,POL:Częstochowski,50.80109879600008,19.24540397281393
1112,BGR:Targovishte,43.25349245250007,26.415154223756367
1113,ALB:Elbasan,41.05036578100004,20.13961872199255
1114,SVN:Goriška,46.10162065200007,13.806819146894073
1115,IRL:South-East ,52.42836969500004,-6.862479182139347
1116,IRL:Border,54.574702571000046,-8.00257824377769
1117,HUN:Bács-Kiskun,46.52062171900008,19.34450441484553
1118,BGR:Sliven,42.64087256250005,26.26389310135481
1119,SWE:Blekinge län,56.24748658850004,15.230093264404251
1120,NOR:Oslo,59.96758945900007,10.778388625124345
1121,DNK:Københavns omegn,55.702421001500056,12.39919331582859
1122,DNK:Østjylland,56.18565656850007,9.804455629496822
1123,MKD:Skopski,41.975394903500046,21.46348149973455
1124,ALB:Fier,40.74957671000004,19.56734751954509
1125,SVN:Pomurska,46.67270590300007,16.231247483882587
1126,CHE:Genève,46.22274185800004,6.147518458671972
1127,ROU:Timiş,45.69458915350006,21.633238795849586
1128,SVN:Osrednjeslovenska,46.04823593750004,14.49318138074342
1129,HRV:Osječko-baranjska županija,45.56270253150007,18.460608983605702
1130,HRV:Istarska županija,45.14481422050005,13.914199576958833
1131,NOR:Innlandet,61.26798015900005,10.484641553845917
1132,NOR:Buskerud,60.25017970650006,8.963737045526216
1133,DNK:Fyn,55.32558646000004,10.347032009384144
1134,IRL:Mid-East,53.39841186700005,-6.793001109124958
1135,IRL:South-West ,52.02199177500006,-9.05389923754836
1136,CZE:Liberecký kraj,50.746353279500056,14.990758839017436
1137,CHE:St. Gallen,47.210980183500055,9.233847420673436
1138,DNK:Bornholm,55.14683250100006,14.909523419283762
1139,IRL:Dublin,53.40686760400007,-6.286394672208431
1140,NOR:Trøndelag/Trööndelage,63.69727041450005,11.686496546616398
1141,HUN:Nógrád,47.97105784750005,19.470871972776592
1142,CZE:Královéhradecký kraj,50.40968361550003,15.68552196216476
1143,ALB:Korcë,40.58697934800006,20.73648423165385
1144,IRL:West,53.65446329150007,-8.96692497317541
1145,SVN:Zasavska,46.08471054100005,14.911172280725305
1146,PRT:Algarve,37.24464933200005,-8.15047934023287
1147,PRT:Ave,41.50169215950007,-8.143209253150765
1148,BGR:Silistra,43.90379316600004,27.06686168437182
1149,HRV:Vukovarsko-srijemska županija,45.16696338950007,18.85541715441968
1150,IRL:Midland,53.36121160950003,-7.502017012011173
1151,EST:Kirde-Eesti,59.12801388000005,27.32790501799407
1152,IRL:Mid-West ,52.68601221100005,-8.170307615775435
1153,MKD:Jugozapaden,41.37368980900007,20.82785003370645
1154,EST:Lääne-Eesti,58.55425410850006,24.37952088333217
1155,MKD:Severoistočen,42.16658144150006,22.00313313864752
1156,EST:Kesk-Eesti,59.12002183750008,26.131473751364236
1157,MKD:Pološki,41.84886923950006,20.87844674193032
1158,PNG:Central,-9.070971999999928,147.35032764661844
1159,PNG:National Capital District,-9.44825999999992,147.21705771176062
1160,SAU:Al Hudud ash Shamaliyah,30.042879900500083,42.684924098801
1161,THA:Roi Et,15.937200922000072,103.75934606273744
1162,THA:Chiang Rai,19.73052700000008,99.88474752899332
1163,MRT:Tiris Zemmour,24.33958530550009,-9.247025896069063
1164,UGA:Yumbe,3.492352485500078,31.284646217456743
1165,UGA:Masaka,-0.3222225024999261,31.790906404392164
1166,THA:Phayao,19.26854586750008,100.1560802842435
1167,THA:Khon Kaen,16.359140396500095,102.67912579021736
1168,PHL:Sultan Kudarat,6.498470068500126,124.3239117531662
1169,PHL:Batanes,20.762064934500103,121.84593511216866
1170,MWI:Kasungu,-12.97560358049992,33.48387575036436
1171,MWI:Phalombe,-15.68190956099994,35.66270429058582
1172,SLV:Cuscatlán,13.845167161000091,-89.05174749246612
1173,SLV:Santa Ana,14.111393929000087,-89.5638270569221
1174,GBR:BMU.1_1,,
1175,GBR:BMU.10_1,,
1176,GBR:VGB.4_1,,
1177,GBR:JEY.5_1,,
1178,UGA:Tororo,0.8109229800001003,34.00361684685813
1179,UGA:Kampala,0.3172239959999956,32.5898404352158
1180,MDA:Floreşti,47.90570640650012,28.36795598751592
1181,MDA:Făleşti,47.57199478150011,27.69213595094807
1182,KEN:Trans Nzoia,1.0473578580000549,34.98364916581892
1183,KEN:Taita Taveta,-3.40893423549997,38.37103283006413
1184,JPN:Tokyo,35.69759550000009,139.4602467634333
1185,JPN:Hyōgo,35.15180397050011,134.85198658254035
1186,MEX:Tlaxcala,19.41695294600015,-98.10974763384414
1187,MEX:Durango,24.594182241500107,-104.58679996425072
1188,IDN:Riau,0.7116286160001266,101.57812953924116
1189,IDN:Kalimantan Selatan,-2.747977136499884,115.51606727882364
1190,CIV:Sassandra-Marahoué,7.027225972000082,-6.268627866539871
1191,CIV:Abidjan,5.428117037000078,-4.041616460032296
1192,ARG:Formosa,-24.667325019499916,-60.09553701567282
1193,ARG:Entre Ríos,-32.10252161849996,-59.4215982905768
1194,MWI:Nsanje,-16.71860408699993,35.10085200398507
1195,MWI:Nkhata Bay,-11.596103190999967,34.21292926594866
1196,PER:Tacna,-17.560326575499886,-70.20921905699808
1197,PER:Lima Province,-12.046663760999934,-76.88202312991874
1198,KHM:Stœng Trêng,13.853290790000074,106.08897801517634
1199,KHM:Phnom Penh,11.579928162500124,104.83863993198976
1200,SOM:Galguduud,4.985000610500094,46.89710701366943
1201,SOM:Sool,9.06500148750007,47.59130729725083
1202,THA:Uttaradit,17.771154403500134,100.46203722053735
1203,THA:Phetchabun,16.224948883000053,101.03656684274844
1204,THA:Saraburi,14.643711091500109,100.90124911804772
1205,THA:Phangnga,8.739158500000144,98.41879319655618
1206,ARG:Tucumán,-27.03806304899996,-65.36880136940502
1207,ARG:Salta,-24.198691368499937,-63.25127337673167
1208,GBR:GGY.4_1,,
1209,GBR:BMU.6_1,,
1210,GBR:JEY.2_1,,
1211,RUS:Murmansk,68.00416550000017,34.56071829014106
1212,RUS:Karelia,63.65073585550016,33.32177520309229
1213,PHL:Davao del Sur,6.561580181000039,125.3471092365807
1214,PHL:Cagayan,18.06828021900003,121.81454504500157
1215,DOM:Valverde,19.585653305500077,-71.0222000332495
1216,DOM:Monseñor Nouel,18.919263839500104,-70.41066411762914
1217,MDA:Bender,46.84095764200015,29.45413112600013
1218,MDA:Drochia,48.0277576445001,27.866454777509496
1219,PHL:Rizal,14.591449737500083,121.2842271138831
1220,PHL:Bukidnon,7.997434855500131,124.971339836899
1221,GBR:JEY.10_1,,
1222,GBR:IMN.18_2,,
1223,PER:Ayacucho,-13.898014545499905,-74.23206641878694
1224,PER:Lima,-11.796395301999894,-76.48655379595286
1225,TCD:Ennedi Ouest,18.5151977540001,21.398975275938447
1226,TCD:Ville de N'Djamena,12.113376618000132,15.068455416369076
1227,GHA:Western,5.444612173000138,-2.1130690158276533
1228,GHA:Oti,7.932099845500119,0.2425287769781035
1229,IND:Kerala,10.544170500000009,76.44695037358483
1230,IND:Himachal Pradesh,31.821175576000087,77.33361260450548
1231,RUS:Sakha,64.75176620550013,129.3038770083706
1232,RUS:Novgorod,58.14473152100007,31.861921362239443
1233,BFA:Haut-Bassins,11.387419701500136,-4.032054513253951
1234,BFA:Centre-Nord,13.23870992700006,-1.034983159229378
1235,JPN:Okayama,34.889694000000105,133.78873339057753
1236,JPN:Hiroshima,34.58424751000004,132.7735579566045
1237,MNG:Dornogovi,44.51243972800015,109.57477022194414
1238,MNG:Hentiy,47.72721484300016,110.37971401621496
1239,MNG:Darhan-Uul,49.45077323950008,106.34861982960724
1240,MNG:Bayan-Ölgiy,48.27445030250013,89.69828671463546
1241,RUS:Stavropol',44.93187713600014,43.68871861147292
1242,RUS:Pskov,57.29951286350007,29.2197890739765
1243,UGA:Pallisa,1.1427750000000856,33.8678622938655
1244,UGA:Iganga,0.7684510055000828,33.52518914008256
1245,THA:Phuket,7.978985548500162,98.33548543850011
1246,THA:Phatthalung,7.491511107000065,100.0516748895478
1247,PHL:Negros Occidental,10.211664676500078,122.99764367559746
1248,PHL:Compostela Valley,7.53600001300012,126.07995568856605
1249,KEN:Mandera,3.221396685500053,40.710789465096525
1250,KEN:Kiambu,-1.0302411309998547,36.84311477991298
1251,GBR:GGY.15_1,,
1252,GBR:BMU.11_1,,
1253,NIC:Granada,12.127784185500076,-85.92426596785646
1254,NIC:Chinandega,12.877844500000036,-87.16033518012613
1255,UGA:Jinja,0.5560345055000937,33.22479247162744
1256,JPN:Nagano,36.10910987800008,138.10275672599982
1257,JPN:Miyazaki,32.09704399200004,131.1922702085987
1258,PHL:Sorsogon,12.825419903000125,124.00339889500016
1259,PHL:Ifugao,16.837994575000067,121.18288138867727
1260,LBY:Misratah,31.4144773485001,14.525814555707932
1261,PHL:Negros Oriental,9.725629806500052,122.99789306338783
1262,PHL:Laguna,14.26975965600002,121.33581370941474
1263,RUS:North Ossetia,43.158071518500094,44.44040401545643
1264,RUS:Khanty-Mansiy,62.13010215750009,71.97749463526858
1265,GBR:GGY.11_1,,
1266,GBR:BMU.9_1,,
1267,DZA:Biskra,34.32180404600007,4.720102814735832
1268,DZA:Saïda,34.74386024500012,0.2434946498983942
1269,MNG:Dundgovi,45.488321304500175,106.06558479540206
1270,MNG:Töv,47.760589501000055,105.61434547689724
1271,MMR:Magway,20.76331996950012,94.57889990508129
1272,MMR:Rakhine,19.4214525000001,94.25461488273352
1273,VNM:Ninh Thuận,11.736336902500057,108.95913620213908
1274,VNM:Hậu Giang,9.7876596455001,105.63858981519496
1275,IND:Daman and Diu,20.717639923500087,70.94340706533613
1276,IND:Andaman and Nicobar,12.611581000000058,92.83169614372066
1277,AFG:Sari Pul,35.729742050500136,66.1118510951467
1278,AFG:Badghis,35.25792694100011,63.628307804977126
1279,CPV:Tarrafal,15.267221927500144,-23.722084045499912
1280,CPV:Sal,16.720555500000046,-22.93875049999994
1281,LAO:Khammouan,17.587269783000067,105.24345760023571
1282,LAO:Xaignabouri,18.69024562900012,101.54496456115972
1283,COL:Norte de Santander,8.082081795500045,-72.86270334502157
1284,COL:Magdalena,10.129546642000122,-74.50239186687185
1285,VNM:Tuyên Quang,22.09753227250013,105.16919671182352
1286,VNM:Quảng Bình,17.51715850800008,106.2834987522086
1287,NGA:Borno,11.870900630500133,13.4548746993627
1288,NGA:Sokoto,12.71346092250016,5.265596559825266
1289,THA:Buri Ram,14.961830616000128,103.065677419077
1290,UGA:Masindi,1.8490520120000724,31.850024248133423
1291,UGA:Kabarole,0.62386149200006,30.2649183812419
1292,THA:Ubon Ratchathani,15.152840138000071,105.10493941814605
1293,MEX:Campeche,19.330707893000067,-89.94324953870753
1294,MEX:Guanajuato,20.877141021000146,-101.25735677395858
1295,GBR:CYM.7_1,,
1296,PHL:Mountain Province,17.065249443000113,121.0617914800627
1297,PHL:Marinduque,13.384630203000086,121.98262709359392
1298,KEN:West Pokot,1.8185141085000964,35.23661154593272
1299,KEN:Nakuru,-0.4542831624999053,36.10047393926504
1300,GBR:JEY.3_1,,
1301,GBR:IMN.13_2,,
1302,RUS:Sakhalin,50.15931145250008,143.02655455133623
1303,RUS:Kaliningrad,54.80337350000002,21.42266615190446
1304,CPV:São Vicente,16.84944450000009,-24.972498999999917
1305,CPV:Santa Cruz,15.113056182000122,-23.5474232227886
1306,RUS:Penza,53.14325714149999,44.77931373828896
1307,RUS:Orenburg,52.44976234500018,53.5444305055742
1308,CAN:Nunavut,66.00104150000001,-100.26361792486496
1309,CAN:Québec,53.88904600000009,-73.2889373751029
1310,VNM:Bến Tre,10.060877323500137,106.51820837164296
1311,VNM:Trà Vinh,9.806520463000084,106.32076725249516
1312,PHL:Oriental Mindoro,12.866525173500122,121.36543280551292
1313,PHL:Camarines Sur,13.683760166500091,123.2065967313848
1314,BRA:Sergipe,-10.54179308399992,-37.16490416693554
1315,BRA:Pará,-3.604321782999932,-51.98169668777328
1316,PHL:Aklan,11.625970000000107,122.22648554913692
1317,PHL:Camiguin,9.168049813500147,124.7137344446324
1318,RUS:Yamal-Nenets,67.53359250000014,69.32709646573663
1319,RUS:Rostov,48.06903266950008,40.94169022067626
1320,DZA:Naâma,33.23553276150005,-0.8155667903942405
1321,DZA:Bouira,36.23229038000008,3.9128292457849545
1322,LBY:Al Marqab,32.39613350000013,14.051032021091247
1323,LBY:Benghazi,31.82075786650003,20.414014578702496
1324,LBR:Grand Bassa,6.140100002500105,-9.919341879079653
1325,LBR:Bong,6.903936386500106,-9.794347901353923
1326,THA:Lop Buri,15.116841317000109,100.94244364097682
1327,THA:Nan,18.82155990600009,100.79554432225504
1328,DZA:Béchar,29.862962723000123,-2.884906850546744
1329,DZA:Mostaganem,36.00258725500012,0.3707621788201667
1330,KEN:Homa Bay,-0.5575089739999157,34.319839567866325
1331,KEN:Kakamega,0.3746125705000338,34.688297418851434
1332,RUS:Chuvash,55.494157792000095,47.1709413145719
1333,TUN:Kairouan,35.60050964400011,9.847225750673704
1334,COD:Haut-Lomami,-8.137875556499921,25.57698613964417
1335,COD:Sankuru,-3.77315568949993,23.44048590595856
1336,NZL:West Coast,-42.63683870499997,171.52778026047235
1337,NZL:Taranaki,-39.28759765599992,174.29603145105494
1338,THA:Uthai Thani,15.36686944950003,99.56098888943716
1339,THA:Mukdahan,16.543985366500067,104.48244813216972
1340,RUS:Bryansk,52.93751144450016,33.12554696066537
1341,THA:Satun,6.767661095500074,100.02737395890796
1342,GEO:Ajaria,41.66916656400008,42.09552807334457
1343,GEO:Samtskhe-Javakheti,41.51597023050007,43.23327464962185
1344,PRY:Cordillera,-25.24775028149986,-56.95363366554051
1345,PRY:Concepción,-22.79103946599992,-57.264431097644255
1346,DZA:Guelma,36.35053634700003,7.407282475754037
1347,DZA:Chlef,36.20380161600005,1.269778672629139
1348,THA:Krabi,8.166850763500094,99.02120199162415
1349,IND:Chhattisgarh,20.94339084750004,81.5022986887761
1350,IND:Madhya Pradesh,23.97556972450008,79.38926444973886
1351,NZL:Gisborne,-38.253489999999886,177.90783263129518
1352,NZL:Northland,-35.39449899999991,173.94163396688032
1353,RUS:Kalmyk,46.505886078000174,45.461695159902696
1354,RUS:Ivanovo,57.02930069000007,41.657183814279534
1355,IND:Sikkim,27.60680010800013,88.4595380957535
1356,IND:Odisha,20.18319400000007,84.44910691981235
1357,RUS:Dagestan,43.093149184500135,46.9570837785663
1358,RUS:Chelyabinsk,54.2029840755001,61.47106783627004
1359,RUS:Adygey,44.48342514050006,40.15420832180841
1360,AFG:Nuristan,35.465198517500056,71.10169363325055
1361,PHL:Northern Samar,12.391235352000107,124.82199725323852
1362,RUS:Kostroma,58.44583129900013,43.86151482523654
1363,UGA:Kamwenge,0.1983035060000872,30.459417293837447
1364,RUS:Yaroslavl',57.74906158450017,39.13494328006183
1365,RUS:Altay,52.5298671725001,82.64337542678652
1366,RUS:Moskva,55.58468055750009,38.94970568351772
1367,PHL:Guimaras,10.579774895000128,122.60824940673572
1368,THA:Trang,7.5410000000001105,99.57847623521158
1369,THA:Bangkok Metropolis,13.72371625849999,100.60350327167016
1370,CPV:Maio,15.227777000000088,-23.155694999999923
1371,CPV:Brava,14.851389000500037,-24.708473500499963
1372,GBR:IMN.20_2,,
1373,NZL:Waikato,-37.88444149999992,175.35757841288574
1374,PHL:Abra,17.569519996500105,120.80032873477371
1375,PHL:Kalinga,17.42593002400008,121.3246175371339
1376,RUS:Astrakhan',47.13490755050012,47.7189459523464
1377,BWA:Kgatleng,-24.12366008749996,26.416771806599627
1378,BWA:Chobe,-18.396665572499927,24.71013661590021
1379,BWA:Gaborone,-24.60442924499992,25.92085563984792
1380,THA:Sa Kaeo,13.715636730500051,102.27701659082184
1381,THA:Ang Thong,14.618255615000097,100.35372958576072
1382,PHL:Cebu,10.349149705000087,123.77864892128584
1383,BDI:Muyinga,-2.7344814539999334,30.319141991567307
1384,BDI:Muramvya,-3.2664915324999697,29.65323339766389
1385,DZA:Ghardaïa,30.979368209500137,3.099953166425748
1386,COL:Vichada,4.528766394000144,-69.4682830041464
1387,COL:La Guajira,11.427778000500098,-72.5818932929532
1388,LAO:Champasak,14.68632078200008,105.882017012845
1389,LAO:Xiangkhoang,19.421082497000043,103.35861526124442
1390,DZA:Khenchela,34.91389656100014,6.907154990861876
1391,DZA:Tlemcen,34.668686491500154,-1.2953246277603954
1392,DZA:Relizane,35.836554761000144,0.9143169411414086
1393,UGA:Soroti,1.667650998000056,33.55480176877329
1394,UGA:Kisoro,-1.2026090029999352,29.67401401618859
1395,GBR:TCA.4_1,,
1396,GBR:JEY.11_1,,
1397,UKR:Zhytomyr,50.64296531700015,28.363487911988067
1398,UKR:Zakarpattia,48.49747276350004,23.028121767106956
1399,ECU:Cotopaxi,-0.775885372999852,-78.79144217454632
1400,ECU:Pastaza,-1.8037570119998636,-76.82260239094765
1401,PHL:Samar,11.710274829000127,125.14624478103606
1402,PHL:Quirino,16.273520470500074,121.58590714081474
1403,THA:Chai Nat,15.159755708000034,100.0385901820754
1404,THA:Samut Songkhram,13.379564762000086,99.92718053315028
1405,LKA:Trincomalee,8.569829735000013,81.06164463093674
1406,LKA:Kandy,7.214307546500066,80.640076620449
1407,MYS:Perak,4.7998460755000565,101.01923719340346
1408,DOM:Distrito Nacional,18.483268737500023,-69.92021789162663
1409,DOM:La Vega,19.0232658380001,-70.7167588360844
1410,GBR:IMN.14_2,,
1411,RUS:Tula,53.88172531100011,37.42647616687576
1412,RUS:Bashkortostan,54.07119941700003,56.31354848338566
1413,THA:Mae Hong Son,18.723851204000084,97.93131493099744
1414,KHM:Batdâmbâng,12.925428210000035,103.23171423066364
1415,KHM:Prey Vêng,11.366119263500051,105.45566071065754
1416,KHM:Kândal,11.396262519000146,105.02090222751258
1417,KHM:Krâchéh,12.678301722000157,106.05817327355663
1418,LKA:Moneragala,6.87725448600014,81.37758636475006
1419,LKA:Kegalle,7.113384723500161,80.32193579978599
1420,MDA:Leova,46.55628265450005,28.40728689928224
1421,MDA:Găgăuzia,46.2073399570001,28.75968270206979
1422,PHL:Tawi-Tawi,5.19792006600008,120.03427041916146
1423,EGY:Aswan,23.67740519100008,32.677286851688365
1424,EGY:Al Wadi al Jadid,24.87305068950008,28.749361719562835
1425,ECU:Azuay,-3.0719977624999046,-79.21924041345616
1426,ECU:Guayas,-1.9543426624999256,-79.92611678144725
1427,BTN:Monggar,27.269227027500136,91.21170181188651
1428,BTN:Dagana,26.990926743000077,89.92426979021025
1429,THA:Sakon Nakhon,17.42946529400001,103.66109207069408
1430,THA:Samut Prakan,13.598085880500092,100.76257240200296
1431,THA:Maha Sarakham,16.023321151500056,103.1801734212724
1432,EGY:Al Bahr al Ahmar,25.44678900000005,34.02033011684741
1433,EGY:Ad Daqahliyah,31.048790931500093,31.52908742650999
1434,BFA:Sud-Ouest,10.384653715000042,-3.284979795866927
1435,KEN:Siaya,-0.0531138664999559,34.200586047543595
1436,KEN:Nyeri,-0.3103960744999199,36.93047066671369
1437,AFG:Farah,32.46704864500012,62.453010446681866
1438,AFG:Balkh,36.48285102850008,67.16338041176134
1439,GTM:Guatemala,14.587687016000103,-90.43430530455572
1440,GTM:Petén,16.83366739700014,-90.04497110794108
1441,UKR:Kiev,50.35402870150008,31.40762880708461
1442,UKR:Kiev City,50.41147995000014,30.50038547951603
1443,JPN:Oita,33.213167000000055,131.35489299833137
1444,JPN:Kanagawa,35.40328550000012,139.28308299132215
1445,MWI:Ntcheu,-14.818274497999935,34.76760215083705
1446,THA:Nakhon Ratchasima,14.962940692500098,102.07216460213505
1447,IRQ:Sala ad-Din,34.541681289500104,43.46931639378242
1448,IRQ:Karbala',32.40288925200011,43.77883304385775
1449,MWI:Dedza,-14.01299190499995,34.28153528681937
1450,MWI:Zomba,-15.438859939499936,35.38765235119071
1451,JPN:Yamaguchi,34.254299000000174,131.52277192364966
1452,JPN:Aomori,40.88097190850007,140.49179870736833
1453,IDN:Sulawesi Selatan,-3.798787831999931,119.94768496033028
1454,PER:Arequipa,-15.95930576349994,-72.44420873333924
1455,PER:Loreto,-4.370070457499935,-74.31167868060678
1456,PER:Apurímac,-14.007585048499864,-72.83887498489483
1457,RUS:Vladimir,55.95549338900011,40.72439528312912
1458,RUS:Sverdlovsk,59.02659797700014,62.29445148720909
1459,JPN:Yamagata,38.43170738200016,140.15388306523604
1460,PHL:North Cotabato,7.2010650645001135,124.85888535900304
1461,PHL:Catanduanes,13.80829987400014,124.2747001405453
1462,ARM:Armavir,40.15031623800007,44.04769442991207
1463,ARM:Tavush,40.97453498900012,45.1474885200985
1464,LKA:Hambantota,6.275252820000134,81.17751700273384
1465,JPN:Gifu,35.803470612000154,137.06524665732485
1466,JPN:Yamanashi,35.57038688600008,138.68918165301903
1467,ARG:Santiago del Estero,-28.06432056399996,-63.43881176612992
1468,MEX:Colima,19.09856743600008,-103.92182267684734
1469,MEX:Oaxaca,17.163686619500112,-96.283424994184
1470,RUS:Udmurt,57.20734787100008,52.76914002258468
1471,VNM:Bắc Kạn,22.273444176000083,105.85637712596288
1472,UGA:Rakai,-0.5149550134999004,31.24952703059934
1473,LKA:Puttalam,7.916224480500119,79.91205168195653
1474,LKA:Matale,7.698232413000085,80.6602839757224
1475,THA:Nakhon Si Thammarat,8.579270363500115,99.71881523496045
1476,NGA:Yobe,11.973616123000111,11.555921687036705
1477,NGA:Kano,11.56123256650011,8.528811679215085
1478,TZA:Kaskazini Unguja,-5.881943941499941,39.29236221300013
1479,TZA:Njombe,-9.60045194549994,34.76986653754729
1480,JOR:Jarash,32.241180420000035,35.9459880060301
1481,JOR:Tafilah,30.822401048000074,35.72394574531168
1482,PHL:Masbate,12.160969734500128,123.74458762696452
1483,KEN:Nyamira,-0.6451438369999494,34.93347797603981
1484,KEN:Nandi,0.2319549920000838,35.121448250997545
1485,KEN:Murang'a,-0.8248603639999601,37.00452699129805
1486,KEN:Kisii,-0.7321770789998823,34.75335327625992
1487,MDA:Criuleni,47.20606998900007,28.99687457152404
1488,KAZ:Aqtöbe,48.28122901900008,59.36136241895322
1489,KAZ:Qostanay,51.43016052250013,63.54265134263727
1490,PHL:Apayao,18.08057498950012,121.198944992276
1491,VNM:Sóc Trăng,9.58919620450007,105.92118343579308
1492,VNM:Kiên Giang,9.975680352500008,105.28182668190084
1493,VNM:Lạng Sơn,21.89294433650008,106.58814486108426
1494,MEX:Baja California Sur,25.435938477500088,-111.54300506176207
1495,MEX:Tabasco,17.95037984150008,-92.48277066696974
1496,GTM:El Progreso,14.895864487500148,-90.06494141638336
1497,GTM:Zacapa,15.017287732000057,-89.47994728363722
1498,GBR:Northern Ireland,54.63738005250016,-6.852681332057429
1499,TUN:Kassérine,35.21870918450014,8.86441344292342
1500,TUN:Ben Arous (Tunis Sud),36.63651657200012,10.16748176469515
1501,JPN:Akita,39.68981700000006,140.43943784741649
1502,RUS:Tyumen',57.54360580500017,67.8288115725061
1503,RUS:Lipetsk,52.73610877950014,38.93297975627704
1504,MMR:Mandalay,21.526524544000097,95.83229955512148
1505,MMR:Kayin,17.356874269000116,97.79922979539596
1506,PHL:Maguindanao,7.150704861000037,124.28819767880589
1507,MMR:Yangon,17.03847023250009,96.12290380721954
1508,MMR:Sagaing,24.48818016100006,95.308009420168
1509,GTM:Izabal,15.518037319500053,-89.0405612544995
1510,GTM:Quezaltenango,14.859471321500138,-91.60017225387502
1511,COD:Haut-Uele,3.327404261000112,28.81107728637141
1512,COD:Mai-Ndombe,-2.569674848999909,18.58451752744001
1513,IDN:Kalimantan Tengah,-1.375409125499857,113.45324347968348
1514,IDN:Jawa Timur,-7.766984939499935,112.27772444524588
1515,RUS:Tuva,51.755395889000056,94.2369411696914
1516,RUS:Mariy-El,56.5963249210001,47.94592858580555
1517,AFG:Parwan,35.00721740800009,68.73819314909272
1518,THA:Pathum Thani,14.093935682000136,100.62875803855556
1519,IND:Tamil Nadu,10.804365635000096,78.35368014308513
1520,VNM:Thừa Thiên Huế,16.36923885350015,107.46359990687458
1521,VNM:Bắc Ninh,21.11764049600012,106.10975459640244
1522,MWI:Karonga,-10.037437438999916,34.06603114103704
1523,MWI:Mulanje,-15.906247139499952,35.54386862572387
1524,UGA:Busia,0.4078869970000482,34.01457794328764
1525,IRQ:Wasit,32.70605659450001,45.63234968100693
1526,ECU:Tungurahua,-1.2589151864998769,-78.5005584600224
1527,PER:Piura,-5.22875099999996,-80.26595156001065
1528,THA:Bueng Kan,18.107055664000143,103.70467655076548
1529,IDN:Jakarta Raya,-6.23000121049995,106.84552655119909
1530,IDN:Sulawesi Utara,1.021605313500061,124.61041019828652
1531,SOM:Gedo,2.7694635395001512,41.765696965341306
1532,SOM:Togdheer,9.150002003000054,45.42681422137048
1533,MDA:Ştefan Voda,46.54033289400007,29.659108414389777
1534,MDA:Bălţi,47.76392555300012,27.95279814718289
1535,NGA:Enugu,6.512749910500105,7.374824767774973
1536,THA:Kamphaeng Phet,16.382061005000082,99.51134425977794
1537,PHL:Leyte,10.873425006000105,124.8604566305904
1538,GBR:Wales,52.36861846400015,-3.607595930631841
1539,GBR:BMU.7_1,,
1540,IDN:Yogyakarta,-7.872962951999909,110.41403741536004
1541,IDN:Sulawesi Tenggara,-3.840073778999965,121.87313666913197
1542,THA:Phetchaburi,12.941589832500142,99.60254284472732
1543,THA:Phrae,18.26870536850015,100.17144600491712
1544,UGA:Mubende,0.5168294910001521,31.705999220289645
1545,THA:Prachin Buri,14.021255970000055,101.57424696929012
1546,THA:Si Sa Ket,14.954740524500096,104.32797870154414
1547,PHL:Misamis Occidental,8.340020180000039,123.70294642159725
1548,GBR:MSR.3_1,,
1549,COD:Lomami,-6.407197713499926,24.62687331980086
1550,KEN:Kirinyaga,-0.4654674999999315,37.30153080831541
1551,PHL:Lanao del Norte,8.017319679500076,123.9899604606195
1552,PHL:Agusan del Norte,9.05905008350004,125.63577035614242
1553,PHL:Romblon,12.386785031000043,122.58656284875494
1554,PHL:Pangasinan,16.005834580000027,120.33637278724076
1555,EGY:Qina,25.928594589,33.0814722363509
1556,EGY:Dumyat,31.34676170400013,31.68590895803213
1557,UZB:Namangan,41.08767318850005,71.36069812881081
1558,LBR:Margibi,6.457856893500036,-10.30122518542436
1559,LBR:Lofa,7.865264416000059,-9.822294882174294
1560,IDN:Jambi,-1.7523194554998724,102.58109682245802
1561,IDN:Bangka Belitung,-2.8992783139999005,107.9055363656884
1562,RUS:Orel,52.79898643550004,36.40872295518416
1563,ARG:Chubut,-44.00172231749994,-68.47397603614019
1564,ARG:San Luis,-33.93344879199989,-65.93486418528522
1565,PHL:Benguet,16.565179825000143,120.71269752997328
1566,THA:Yala,6.149494410000045,101.23639691251697
1567,DOM:Bahoruco,18.48912239100008,-71.32777008776054
1568,DOM:San Pedro de Macorís,18.609257699000157,-69.4814130457388
1569,RUS:Buryat,53.59362793050005,111.054197954534
1570,RUS:Kamchatka,57.88798900000012,159.8280775274086
1571,BDI:Cibitoke,-2.848198522999951,29.26183016492716
1572,IDN:Banten,-6.437695503999919,106.13333643838948
1573,IDN:Kalimantan Utara,2.7234610000001567,115.96265083302984
1574,GBR:GGY.13_1,,
1575,DOM:San Cristóbal,18.518174171000084,-70.21220790388924
1576,ECU:Loja,-4.038352250999935,-79.80326601426344
1577,GBR:JEY.4_1,,
1578,GBR:IMN.6_2,,
1579,THA:Nakhon Nayok,14.235105514500075,101.1637367266746
1580,MDA:Taraclia,45.910313000000144,28.614561144082725
1581,MDA:Rîşcani,47.93541145350008,27.44281082897769
1582,PHL:South Cotabato,6.313309909000139,124.71999287357748
1583,THA:Prachuap Khiri Khan,11.803724729000066,99.72446763991064
1584,THA:Nakhon Pathom,13.927530289500083,100.09761791508608
1585,VNM:Quảng Ninh,21.23846626300005,107.24210574359438
1586,SAU:Ḥaʼil,27.225400000000093,41.486843897405095
1587,SAU:Tabuk,27.268811500000083,38.80285059940715
1588,THA:Tak,16.522780418500076,98.89127497149178
1589,THA:Ratchaburi,13.547914982000066,99.61698317027816
1590,MDA:Calarasi,47.3026161195001,28.29947559200677
1591,PHL:Pampanga,15.017459869500073,120.6784213912483
1592,PHL:Agusan del Sur,8.59062528700008,125.6212123511005
1593,THA:Trat,12.20234909150014,102.4193777694678
1594,THA:Lampang,18.310830117500103,99.52689252575809
1595,PER:Madre de Dios,-11.621549605999943,-70.75122057642332
1596,VNM:Hoà Bình,20.70594119950005,105.2607847293506
1597,VNM:Hà Nội,20.974946022000097,105.6759067527808
1598,UGA:Rukungiri,-0.7027350069999443,29.891206585735212
1599,THA:Chachoengsao,13.57650089350011,101.56426889786422
1600,VNM:Khánh Hòa,12.337126503000093,108.9412902916661
1601,DZA:Béjaïa,36.5580251695001,4.7896140444384585
1602,DZA:Tizi Ouzou,36.68001883400007,4.23814326007114
1603,AFG:Kunar,35.01820468950007,71.07878645289895
1604,MEX:San Luis Potosí,22.827414558500152,-101.09626249651608
1605,IRQ:Al-Basrah,30.229710814500063,47.49649763403959
1606,RUS:Ingush,43.09539604150004,45.03227471406852
1607,PHL:La Union,16.564429283500175,120.42505324680292
1608,THA:Phitsanulok,17.024300575500092,100.54352312502884
1609,THA:Kalasin,16.639864922500152,103.68578741703186
1610,MDA:Sîngerei,47.668657303000174,28.205108201164567
1611,MDA:Donduseni,48.20773887700011,27.696562717279743
1612,AGO:Namibe,-15.389384510499925,12.731027052868544
1613,AGO:Huíla,-14.85247306799991,15.009953125408098
1614,PNG:West New Britain,-5.611777999999958,149.63131099696892
1615,GBR:IMN.9_2,,
1616,UGA:Sironko,1.3290904760001467,34.278298797332084
1617,VNM:Vĩnh Phúc,21.362462043500106,105.58409073670336
1618,VNM:Tây Ninh,11.370623699500072,106.11203015174692
1619,BEN:Littoral,6.375981000000138,2.4245569570947287
1620,THA:Nong Bua Lam Phu,17.22139453950004,102.30805152868048
1621,CPV:Ribeira Grande,17.142359733500058,-25.13549011151545
1622,VNM:Bắc Giang,21.37428092950003,106.4662276589915
1623,VNM:Đắk Lắk,12.788317204000036,108.41651072047732
1624,VNM:Bạc Liêu,9.327388763500068,105.53276684902931
1625,UGA:Kabale,-1.2336211199998957,30.015660090734045
1626,IND:Tripura,23.736294746000112,91.65599770080368
1627,VNM:Bình Định,14.108333588000107,108.95286860185244
1628,VNM:Hà Giang,22.77969837150013,104.95964856707982
1629,PNG:East Sepik,-4.250560717499923,142.96266078356027
1630,PNG:Bougainville,-6.143645999999933,155.2057972738305
1631,PHL:Sarangani,6.032079934500075,124.62852338959244
1632,PHL:Davao Oriental,7.135035039000087,126.2760227284889
1633,LBY:Al Kufrah,23.25698852550013,22.00506039410328
1634,LBY:Ghat,26.026681900500108,10.455887895421078
1635,VNM:Long An,10.712113858500118,106.1257079475755
1636,VNM:Hải Phòng,20.808936119000123,106.704882827585
1637,MDA:Ialoveni,46.87940216100006,28.82927049507496
1638,SLV:Morazán,13.76308059700014,-88.09336386703981
1639,SLV:Usulután,13.425968647500127,-88.53350471041729
1640,GEO:Kvemo Kartli,41.50272750900015,44.59338317684752
1641,GEO:Imereti,42.163452148500085,42.94528333254527
1642,LKA:Galle,6.202301979500106,80.2317829277924
1643,GTM:Sacatepéquez,14.547330379000073,-90.75361380139285
1644,GTM:Jalapa,14.650895596500106,-89.92296579338652
1645,TUN:Le Kef,36.0473928450001,8.724215391779353
1646,KEN:Isiolo,1.0069472200001144,38.74766155949639
1647,KEN:Tharaka-Nithi,-0.1919786634999241,37.95994641882548
1648,PHL:Surigao del Norte,9.57457017900009,125.57651155953717
1649,PHL:Palawan,12.145299969500089,120.02806622328256
1650,BTN:Wangdue Phodrang,27.58269786800011,90.15445443686028
1651,BTN:Punakha,27.66536140500014,89.8586153894091
1652,MEX:Chiapas,16.260164131000096,-92.24524124805684
1653,MEX:Sinaloa,24.755243591500147,-107.38421300077296
1654,PHL:Basilan,6.578749895500096,122.03527450600012
1655,RUS:Tver',57.21124076850009,35.266830794841994
1656,PHL:Antique,11.116384983500067,122.14623609412868
1657,PHL:Occidental Mindoro,12.870305062000114,121.0128002138488
1658,IND:Dadra and Nagar Haveli,20.20629024600004,73.01858778227916
1659,IND:Uttarakhand,30.003169060500117,79.24369826634198
1660,RUS:Ryazan',54.31703503200001,40.66673821218133
1661,PRY:Caaguazú,-25.084012985499896,-55.87555158398597
1662,PRY:Presidente Hayes,-23.659118651999904,-59.0910780264273
1663,MDA:Cantemir,46.26564216650005,28.352590765719757
1664,NGA:Bayelsa,4.839999000000063,6.014365258447189
1665,NGA:Edo,6.656338454000064,5.85129763475272
1666,MWI:Mwanza,-15.612322806499918,34.50956272760607
1667,MWI:Lilongwe,-14.043386459499942,33.73506149298066
1668,PHL:Zamboanga Sibugay,7.688575030000123,122.93687246185335
1669,PER:Ucayali,-9.370634077999966,-73.92118998628969
1670,DZA:Tamanghasset,24.37244987550008,4.481545883514916
1671,DZA:Sidi Bel Abbès,34.68174346350014,-0.4349880481224287
1672,PHL:Surigao del Sur,8.702499867000114,126.11204957988032
1673,PHL:Dinagat Islands,10.161739826000089,125.5571451030761
1674,DOM:Samaná,19.17804950100012,-69.65072930837954
1675,DOM:Independencia,18.41720390350008,-71.63089947001032
1676,MWI:Chitipa,-9.976662158499892,33.41824166552682
1677,MWI:Chikwawa,-16.214873313499908,34.72036214914758
1678,EGY:Al Isma`iliyah,30.601060867500134,32.445172619624884
1679,KAZ:West Kazakhstan,49.84337425150008,51.44787474743148
1680,PHL:Metropolitan Manila,14.565198977500046,121.0393660519643
1681,UKR:Odessa,46.73082733150005,30.582051921507
1682,KEN:Vihiga,0.087873727500181,34.70802703069697
1683,UGA:Bushenyi,-0.4236489974999244,30.163719683087475
1684,RUS:Leningrad,59.87645128800014,32.96225843008635
1685,JPN:Tochigi,36.675819397000055,139.7829450559792
1686,JPN:Miyagi,38.38571200000016,140.84097696171204
1687,RUS:Chechnya,43.22317886400009,45.887852012540456
1688,VEN:Táchira,7.992958308500107,-72.05076725298275
1689,VEN:Sucre,10.384722213500083,-63.50764577378104
1690,RUS:Moscow City,55.71176528950016,37.658945588195024
1691,TZA:Geita,-3.321517585999913,31.84460108939001
1692,TZA:Rukwa,-7.981162548499896,31.489485557435493
1693,DZA:Batna,35.34026033200007,5.73341995133867
1694,NGA:Cross River,5.791812896500119,8.40021109358885
1695,NGA:Kogi,7.623667955000087,6.87060388135859
1696,GBR:IMN.11_2,,
1697,VNM:Ninh Bình,20.19450283100005,105.94794339695
1698,DZA:Laghouat,33.74697017700015,2.645939329893504
1699,JPN:Chiba,35.49959182750004,140.22935823685688
1700,JPN:Ishikawa,37.1295200000001,136.9844912521175
1701,VNM:Lai Châu,22.248468398500137,103.26575620113846
1702,YEM:Ibb,14.087272167500116,44.17548859940764
1703,YEM:Hadramawt,16.528963089000086,48.62677440288271
1704,GHA:Central,5.664296648000089,-1.1589741435561869
1705,PER:Puno,-15.14835152649988,-70.09345233386622
1706,GBR:JEY.8_1,,
1707,IDN:Gorontalo,0.6735259595000969,122.25433534413744
1708,IDN:Bali,-8.455605983499964,115.2700623266656
1709,PHL:Bohol,9.880684853000131,124.20597831536436
1710,PHL:Batangas,13.913565159500024,121.03786217413952
1711,IRQ:Ninawa,35.972282410000105,42.3330702028243
1712,KEN:Kitui,-1.5604900114999225,38.371809793704
1713,VNM:Yên Bái,21.808279991500143,104.51788156511006
1714,PAN:Kuna Yala,9.035864621500052,-77.87342558573582
1715,PAN:Colón,9.133611202500049,-80.18519119449815
1716,VNM:Thanh Hóa,19.97869491600008,105.49437658895398
1717,VNM:Sơn La,21.302867889500103,104.13829370307712
1718,VNM:Quảng Ngãi,14.97829294200011,108.60411136012934
1719,THA:Nakhon Sawan,15.62528451850011,100.38224079722592
1720,IDN:Papua Barat,-1.8652144999999225,130.0664846203249
1721,IDN:Nusa Tenggara Barat,-8.594914999999872,117.271689770904
1722,BDI:Cankuzo,-3.144729738999956,30.591057498038857
1723,BDI:Bujumbura Mairie,-3.394593476499949,29.314255052497003
1724,DZA:Souk Ahras,36.1390266435001,7.825932625826898
1725,VNM:Cà Mau,9.06201982500005,105.082761579535
1726,THA:Ranong,10.044955500000071,98.76695392263974
1727,MOZ:Nampula,-15.17642999599994,39.03926341062651
1728,MOZ:Inhambane,-22.91083240549992,34.596999347195684
1729,NGA:Kebbi,11.663010196999975,4.060199095943068
1730,NGA:Abia,5.418409348000154,7.483744082122785
1731,IND:Chandigarh,30.73388576500011,76.76733253808752
1732,IND:Nagaland,26.12501621250007,94.55932464105834
1733,THA:Chanthaburi,12.820113608500035,102.17568558914776
1734,GTM:Suchitepéquez,14.377591134000111,-91.4790164340308
1735,YEM:Lahij,13.322118760000109,44.76280649730664
1736,YEM:Hajjah,16.092500500000085,43.20297525419983
1737,DOM:Monte Cristi,19.714945571500092,-71.43855228340905
1738,DOM:La Altagracia,18.588055611500096,-68.59814862392835
1739,MAR:Gharb - Chrarda - Béni Hssen,34.541805268000104,-5.860227856865372
1740,MAR:Tanger - Tétouan,35.31861100000009,-5.517083880999962
1741,LKA:Kilinochchi,9.450000000000074,80.43236150000013
1742,IRQ:Babil,32.634042740000154,44.55783567875439
1743,IRQ:Arbil,36.38637924200009,44.18166846363363
1744,TUN:Béja,36.76832389850017,9.19039740099605
1745,JPN:Tokushima,33.892574500000165,134.18238616967497
1746,JPN:Saitama,36.016235352500075,139.28568352809322
1747,DZA:Tébessa,35.12109947250008,7.898413579166365
1748,DZA:El Tarf,36.67121696550015,8.071687777496349
1749,VNM:Nghệ An,19.274414062500146,104.86067208322
1750,VNM:Lào Cai,22.36075782800017,104.15684731042776
1751,TCD:Ouaddaï,13.518655300000006,21.26869505370347
1752,TCD:Mandoul,8.718426228000084,17.58003139485136
1753,UKR:Volyn,51.13793182350014,24.936771729388816
1754,UKR:?,50.40165710450003,30.704036837955755
1755,ECU:Los Rios,-1.3354659674999425,-79.53785568441256
1756,SEN:Fatick,14.16446351950006,-16.568687634871182
1757,SEN:Sédhiou,12.910955906000057,-15.55376710459944
1758,LAO:Houaphan,20.29420375850017,103.91975074938682
1759,JPN:Shimane,34.95238850000007,132.4265474296217
